#INSPVAA,ICOM1,0,90.7,FINESTEERING,2269,271158.968,00000000,03bf,769;2269,271158.968000000,23.26337241773,113.52490798126,27.1272,-1.3464,-2.6467,-0.0172,0.058394169,0.332561963,241.220929407,INS_SOLUTION_GOOD*4ca31391
#INSPVAA,ICOM1,0,90.7,FINESTEERING,2269,271158.976,00000000,03c7,769;2269,271158.976000000,23.26337231861,113.52490777431,27.1271,-1.3465,-2.6523,-0.0188,0.053868831,0.336903661,241.219034296,INS_SOLUTION_GOOD*48fcf546
#INSPVAA,ICOM1,0,90.7,FINESTEERING,2269,271158.984,00000000,03cf,769;2269,271158.984000000,23.26337221936,113.52490756727,27.1269,-1.3482,-2.6545,-0.0195,0.057295211,0.339287776,241.216786050,INS_SOLUTION_GOOD*c16cb785
#INSPVAA,ICOM1,0,90.7,FINESTEERING,2269,271158.992,00000000,03d7,769;2269,271158.992000000,23.26337212009,113.52490735999,27.1268,-1.3491,-2.6570,-0.0188,0.058674697,0.344520749,241.215288965,INS_SOLUTION_GOOD*c40789e6
#INSPVAA,ICOM1,0,90.7,FINESTEERING,2269,271159.000,00000000,03df,769;2269,271159.000000000,23.26337202071,113.52490715250,27.1266,-1.3504,-2.6596,-0.0219,0.058136601,0.348178925,241.214705825,INS_SOLUTION_GOOD*5cbfc0b2
#INSPVAA,ICOM1,0,90.7,FINESTEERING,2269,271159.008,00000000,03e7,769;2269,271159.008000000,23.26337192319,113.52490694457,27.1264,-1.3506,-2.6610,-0.0208,0.057660292,0.352661743,241.211901412,INS_SOLUTION_GOOD*3aa2c0a7
#INSPVAA,ICOM1,0,90.7,FINESTEERING,2269,271159.016,00000000,0007,769;2269,271159.016000000,23.26337182571,113.52490673639,27.1263,-1.3499,-2.6637,-0.0195,0.052328371,0.357211776,241.210119713,INS_SOLUTION_GOOD*fb39d967
#INSPVAA,ICOM1,0,90.7,FINESTEERING,2269,271159.024,00000000,000f,769;2269,271159.024000000,23.26337172806,113.52490652812,27.1261,-1.3518,-2.6651,-0.0208,0.052663481,0.362242404,241.207030553,INS_SOLUTION_GOOD*edee4963
#INSPVAA,ICOM1,0,90.7,FINESTEERING,2269,271159.032,00000000,0017,769;2269,271159.032000000,23.26337163051,113.52490631973,27.1259,-1.3509,-2.6664,-0.0212,0.050658647,0.364503165,241.204502156,INS_SOLUTION_GOOD*d57d6b47
#INSPVAA,ICOM1,0,90.7,FINESTEERING,2269,271159.040,00000000,001f,769;2269,271159.040000000,23.26337153272,113.52490611098,27.1258,-1.3537,-2.6706,-0.0188,0.049583593,0.371773367,241.201432196,INS_SOLUTION_GOOD*bcab7f53
#INSPVAA,ICOM1,0,90.7,FINESTEERING,2269,271159.048,00000000,0027,769;2269,271159.048000000,23.26337143495,113.52490590215,27.1256,-1.3542,-2.6725,-0.0212,0.051643902,0.372387484,241.198214467,INS_SOLUTION_GOOD*b13ef792
#INSPVAA,ICOM1,0,90.7,FINESTEERING,2269,271159.056,00000000,002f,769;2269,271159.056000000,23.26337133712,113.52490569310,27.1255,-1.3548,-2.6750,-0.0183,0.046677564,0.378714855,241.195114525,INS_SOLUTION_GOOD*5830a044
#BESTPOSA,ICOM1,0,90.7,FINESTEERING,2269,271159.000,00000000,0001,769;SOL_COMPUTED,NARROW_INT,23.26337023037,113.52490468561,34.6208,-6.3550,WGS84,0.0112,0.0107,0.0238,"3973",1.000,0.054,55,25,25,25,00,00,30,37*82036985
#INSPVAA,ICOM1,0,90.7,FINESTEERING,2269,271159.064,00000000,0037,769;2269,271159.064000000,23.26337123914,113.52490548394,27.1253,-1.3568,-2.6764,-0.0188,0.048191467,0.383533375,241.190833598,INS_SOLUTION_GOOD*2bcf8318
#INSPVAA,ICOM1,0,90.7,FINESTEERING,2269,271159.072,00000000,003f,769;2269,271159.072000000,23.26337114108,113.52490527459,27.1252,-1.3581,-2.6787,-0.0176,0.046861070,0.390867497,241.187577823,INS_SOLUTION_GOOD*948d7b7e
#INSPVAA,ICOM1,0,90.7,FINESTEERING,2269,271159.080,00000000,0047,769;2269,271159.080000000,23.26337104286,113.52490506510,27.1251,-1.3603,-2.6804,-0.0152,0.048891517,0.392067766,241.183636068,INS_SOLUTION_GOOD*1f36dccd
#INSPVAA,ICOM1,0,90.7,FINESTEERING,2269,271159.088,00000000,004f,769;2269,271159.088000000,23.26337094463,113.52490485530,27.1250,-1.3609,-2.6843,-0.0126,0.046684014,0.397605693,241.179601845,INS_SOLUTION_GOOD*74a5e837
#INSPVAA,ICOM1,0,90.7,FINESTEERING,2269,271159.096,00000000,0057,769;2269,271159.096000000,23.26337084636,113.52490464549,27.1248,-1.3610,-2.6851,-0.0135,0.048381161,0.399197378,241.174873282,INS_SOLUTION_GOOD*0f0f3795
#INSPVAA,ICOM1,0,90.7,FINESTEERING,2269,271159.104,00000000,005f,769;2269,271159.104000000,23.26337074801,113.52490443564,27.1247,-1.3619,-2.6851,-0.0146,0.054114565,0.402711547,241.170371373,INS_SOLUTION_GOOD*cf5fbf0f
#INSPVAA,ICOM1,0,90.7,FINESTEERING,2269,271159.112,00000000,0067,769;2269,271159.112000000,23.26337064965,113.52490422549,27.1246,-1.3622,-2.6883,-0.0115,0.051632943,0.407729240,241.165112483,INS_SOLUTION_GOOD*53810325
#INSPVAA,ICOM1,0,90.7,FINESTEERING,2269,271159.120,00000000,006f,769;2269,271159.120000000,23.26337055122,113.52490401541,27.1246,-1.3629,-2.6880,-0.0073,0.055598860,0.414407736,241.159005573,INS_SOLUTION_GOOD*5735cf76
#INSPVAA,ICOM1,0,90.7,FINESTEERING,2269,271159.128,00000000,0077,769;2269,271159.128000000,23.26337045273,113.52490380512,27.1245,-1.3638,-2.6901,-0.0068,0.058343874,0.416992922,241.154407086,INS_SOLUTION_GOOD*e5b326c4
#INSPVAA,ICOM1,0,90.7,FINESTEERING,2269,271159.136,00000000,007f,769;2269,271159.136000000,23.26337035419,113.52490359472,27.1245,-1.3645,-2.6918,-0.0041,0.059294622,0.417305685,241.147666521,INS_SOLUTION_GOOD*d4ebaffa
#INSPVAA,ICOM1,0,90.7,FINESTEERING,2269,271159.144,00000000,0087,769;2269,271159.144000000,23.26337025567,113.52490338424,27.1244,-1.3644,-2.6930,-0.0018,0.065584295,0.419096822,241.142068847,INS_SOLUTION_GOOD*6131c12b
#INSPVAA,ICOM1,0,90.7,FINESTEERING,2269,271159.152,00000000,008f,769;2269,271159.152000000,23.26337015706,113.52490317357,27.1244,-1.3653,-2.6952,-0.0016,0.068800886,0.422249622,241.135899897,INS_SOLUTION_GOOD*435ff561
#INSPVAA,ICOM1,0,90.7,FINESTEERING,2269,271159.160,00000000,0097,769;2269,271159.160000000,23.26337005848,113.52490296281,27.1244,-1.3651,-2.6966,0.0019,0.070760031,0.422820220,241.128842576,INS_SOLUTION_GOOD*54536acf
#INSPVAA,ICOM1,0,90.7,FINESTEERING,2269,271159.168,00000000,009f,769;2269,271159.168000000,23.26336996001,113.52490275197,27.1244,-1.3634,-2.6974,0.0024,0.073002410,0.424585537,241.121300872,INS_SOLUTION_GOOD*680b64c0
#INSPVAA,ICOM1,0,90.7,FINESTEERING,2269,271159.176,00000000,00a7,769;2269,271159.176000000,23.26336986142,113.52490254104,27.1245,-1.3644,-2.6985,0.0047,0.080014448,0.426587423,241.113850798,INS_SOLUTION_GOOD*6b11c3ce
#INSPVAA,ICOM1,0,90.7,FINESTEERING,2269,271159.184,00000000,00af,769;2269,271159.184000000,23.26336976295,113.52490232992,27.1245,-1.3634,-2.7008,0.0076,0.082214296,0.424918242,241.105487152,INS_SOLUTION_GOOD*e3465297
#INSPVAA,ICOM1,0,90.7,FINESTEERING,2269,271159.192,00000000,00b7,769;2269,271159.192000000,23.26336966443,113.52490211877,27.1246,-1.3636,-2.7016,0.0071,0.084077732,0.425833007,241.096601242,INS_SOLUTION_GOOD*2e13cd7d
#INSPVAA,ICOM1,0,90.7,FINESTEERING,2269,271159.200,00000000,00bf,769;2269,271159.200000000,23.26336956588,113.52490190753,27.1246,-1.3642,-2.7025,0.0090,0.088709055,0.423506007,241.088431853,INS_SOLUTION_GOOD*20f96192
#INSPVAA,ICOM1,0,90.7,FINESTEERING,2269,271159.208,00000000,00c7,769;2269,271159.208000000,23.26336946760,113.52490169612,27.1247,-1.3608,-2.7044,0.0097,0.089980307,0.422603541,241.079335604,INS_SOLUTION_GOOD*09e4563c
#INSPVAA,ICOM1,0,90.7,FINESTEERING,2269,271159.216,00000000,00cf,769;2269,271159.216000000,23.26336936923,113.52490148469,27.1248,-1.3611,-2.7051,0.0105,0.096735093,0.425404413,241.069227953,INS_SOLUTION_GOOD*99fe7c50
#INSPVAA,ICOM1,0,90.7,FINESTEERING,2269,271159.224,00000000,00d7,769;2269,271159.224000000,23.26336927097,113.52490127329,27.1249,-1.3599,-2.7045,0.0119,0.096377148,0.423168672,241.059207183,INS_SOLUTION_GOOD*018a695c
#INSPVAA,ICOM1,0,90.7,FINESTEERING,2269,271159.232,00000000,00df,769;2269,271159.232000000,23.26336917273,113.52490106185,27.1250,-1.3595,-2.7046,0.0142,0.094632132,0.421478906,241.048749500,INS_SOLUTION_GOOD*012748ea
#INSPVAA,ICOM1,0,90.7,FINESTEERING,2269,271159.240,00000000,00e7,769;2269,271159.240000000,23.26336907442,113.52490085037,27.1251,-1.3606,-2.7049,0.0115,0.096952539,0.419657697,241.038477463,INS_SOLUTION_GOOD*33b88291
#INSPVAA,ICOM1,0,90.7,FINESTEERING,2269,271159.248,00000000,00ef,769;2269,271159.248000000,23.26336897623,113.52490063881,27.1252,-1.3594,-2.7060,0.0138,0.100099241,0.415388833,241.028755754,INS_SOLUTION_GOOD*2ddd726e
#INSPVAA,ICOM1,0,90.7,FINESTEERING,2269,271159.256,00000000,00f7,769;2269,271159.256000000,23.26336887817,113.52490042719,27.1253,-1.3575,-2.7071,0.0107,0.098745441,0.416473959,241.017349751,INS_SOLUTION_GOOD*95c84844
#INSPVAA,ICOM1,0,90.7,FINESTEERING,2269,271159.264,00000000,00ff,769;2269,271159.264000000,23.26336878003,113.52490021571,27.1254,-1.3579,-2.7054,0.0109,0.099778419,0.417387711,241.004441156,INS_SOLUTION_GOOD*c6a95572
#INSPVAA,ICOM1,0,90.7,FINESTEERING,2269,271159.272,00000000,0107,769;2269,271159.272000000,23.26336867386,113.52490000684,27.1256,-1.3590,-2.7069,0.0127,0.097941558,0.415744555,240.992492298,INS_SOLUTION_GOOD*a3109919
#INSPVAA,ICOM1,0,90.7,FINESTEERING,2269,271159.280,00000000,010f,769;2269,271159.280000000,23.26336857190,113.52489979652,27.1258,-1.3597,-2.7071,0.0129,0.094667671,0.415305393,240.980010108,INS_SOLUTION_GOOD*bbd70572
#INSPVAA,ICOM1,0,90.7,FINESTEERING,2269,271159.288,00000000,0117,769;2269,271159.288000000,23.26336846982,113.52489958623,27.1259,-1.3614,-2.7067,0.0128,0.095496713,0.412141043,240.968069853,INS_SOLUTION_GOOD*8cac231f
#INSPVAA,ICOM1,0,90.7,FINESTEERING,2269,271159.296,00000000,011f,769;2269,271159.296000000,23.26336836768,113.52489937597,27.1261,-1.3627,-2.7061,0.0128,0.096864400,0.411296883,240.956786457,INS_SOLUTION_GOOD*d5496adf
#INSPVAA,ICOM1,0,90.7,FINESTEERING,2269,271159.304,00000000,0127,769;2269,271159.304000000,23.26336826559,113.52489916569,27.1263,-1.3622,-2.7061,0.0104,0.098002978,0.408758182,240.945257650,INS_SOLUTION_GOOD*1a160a21
#INSPVAA,ICOM1,0,90.7,FINESTEERING,2269,271159.312,00000000,012f,769;2269,271159.312000000,23.26336816333,113.52489895546,27.1264,-1.3641,-2.7054,0.0105,0.098605606,0.407909798,240.932113763,INS_SOLUTION_GOOD*d4478256
#INSPVAA,ICOM1,0,90.7,FINESTEERING,2269,271159.320,00000000,0137,769;2269,271159.320000000,23.26336806104,113.52489874524,27.1266,-1.3652,-2.7052,0.0102,0.092833894,0.406998901,240.919746587,INS_SOLUTION_GOOD*98767fb0
#INSPVAA,ICOM1,0,90.7,FINESTEERING,2269,271159.328,00000000,013f,769;2269,271159.328000000,23.26336795854,113.52489853517,27.1267,-1.3681,-2.7033,0.0084,0.094972615,0.407208299,240.907453349,INS_SOLUTION_GOOD*ee0eb00c
#INSPVAA,ICOM1,0,90.7,FINESTEERING,2269,271159.336,00000000,0147,769;2269,271159.336000000,23.26336785598,113.52489832513,27.1268,-1.3695,-2.7024,0.0072,0.099524635,0.406330172,240.896902228,INS_SOLUTION_GOOD*71905d8a
#INSPVAA,ICOM1,0,90.7,FINESTEERING,2269,271159.344,00000000,014f,769;2269,271159.344000000,23.26336775325,113.52489811507,27.1270,-1.3718,-2.7027,0.0076,0.102073829,0.406712143,240.885811604,INS_SOLUTION_GOOD*c5000ad8
#INSPVAA,ICOM1,0,90.7,FINESTEERING,2269,271159.352,00000000,0157,769;2269,271159.352000000,23.26336765051,113.52489790522,27.1271,-1.3724,-2.7002,0.0039,0.101492360,0.404182831,240.873741528,INS_SOLUTION_GOOD*5a1f4326
#INSPVAA,ICOM1,0,90.7,FINESTEERING,2269,271159.360,00000000,015f,769;2269,271159.360000000,23.26336754761,113.52489769526,27.1272,-1.3743,-2.7010,0.0056,0.097708105,0.407513719,240.862022764,INS_SOLUTION_GOOD*8e315b0b
#INSPVAA,ICOM1,0,90.7,FINESTEERING,2269,271159.368,00000000,0167,769;2269,271159.368000000,23.26336744456,113.52489748537,27.1273,-1.3766,-2.7007,0.0036,0.101414130,0.406702673,240.851252499,INS_SOLUTION_GOOD*b72ebd76
#INSPVAA,ICOM1,0,90.7,FINESTEERING,2269,271159.376,00000000,016f,769;2269,271159.376000000,23.26336734152,113.52489727560,27.1274,-1.3768,-2.6991,0.0029,0.104223260,0.407876147,240.840092255,INS_SOLUTION_GOOD*a10ba981
#INSPVAA,ICOM1,0,90.7,FINESTEERING,2269,271159.384,00000000,0177,769;2269,271159.384000000,23.26336723821,113.52489706594,27.1275,-1.3800,-2.6974,0.0014,0.104632821,0.406652036,240.828748451,INS_SOLUTION_GOOD*acdb814f
#INSPVAA,ICOM1,0,90.7,FINESTEERING,2269,271159.392,00000000,017f,769;2269,271159.392000000,23.26336713487,113.52489685621,27.1276,-1.3813,-2.6979,0.0019,0.101882572,0.408225822,240.819122754,INS_SOLUTION_GOOD*b7feaae8
#INSPVAA,ICOM1,0,90.7,FINESTEERING,2269,271159.400,00000000,0187,769;2269,271159.400000000,23.26336703142,113.52489664654,27.1276,-1.3826,-2.6976,-0.0010,0.103867998,0.406961503,240.809062826,INS_SOLUTION_GOOD*a5f58f52
#INSPVAA,ICOM1,0,90.7,FINESTEERING,2269,271159.408,00000000,018f,769;2269,271159.408000000,23.26336692797,113.52489643697,27.1277,-1.3828,-2.6964,-0.0014,0.103815981,0.410533149,240.799494910,INS_SOLUTION_GOOD*41098f70
#INSPVAA,ICOM1,0,90.7,FINESTEERING,2269,271159.416,00000000,0197,769;2269,271159.416000000,23.26336682454,113.52489622718,27.1277,-1.3823,-2.6987,-0.0005,0.099543483,0.414393271,240.789039621,INS_SOLUTION_GOOD*d3febab6
#INSPVAA,ICOM1,0,90.7,FINESTEERING,2269,271159.424,00000000,019f,769;2269,271159.424000000,23.26336672083,113.52489601772,27.1278,-1.3857,-2.6957,-0.0029,0.098728399,0.413314453,240.777624441,INS_SOLUTION_GOOD*5c7f552c
#INSPVAA,ICOM1,0,90.7,FINESTEERING,2269,271159.432,00000000,01a7,769;2269,271159.432000000,23.26336661705,113.52489580809,27.1279,-1.3876,-2.6965,0.0015,0.094990221,0.415552057,240.768512505,INS_SOLUTION_GOOD*8fa31d79
#INSPVAA,ICOM1,0,90.7,FINESTEERING,2269,271159.440,00000000,01af,769;2269,271159.440000000,23.26336651336,113.52489559844,27.1279,-1.3868,-2.6972,-0.0002,0.091249703,0.414874001,240.759667145,INS_SOLUTION_GOOD*f58940a2
#INSPVAA,ICOM1,0,83.5,FINESTEERING,2269,271159.448,00000000,01b7,769;2269,271159.448000000,23.26336640956,113.52489538880,27.1280,-1.3876,-2.6972,-0.0006,0.092995254,0.416333914,240.749927035,INS_SOLUTION_GOOD*244b3369
#INSPVAA,ICOM1,0,83.5,FINESTEERING,2269,271159.456,00000000,01bf,769;2269,271159.456000000,23.26336630588,113.52489517913,27.1281,-1.3863,-2.6975,-0.0016,0.085749968,0.415929934,240.740610276,INS_SOLUTION_GOOD*966cd7ac
#INSPVAA,ICOM1,0,83.5,FINESTEERING,2269,271159.464,00000000,01c7,769;2269,271159.464000000,23.26336620203,113.52489496938,27.1281,-1.3881,-2.6986,0.0010,0.082585216,0.418120107,240.730252831,INS_SOLUTION_GOOD*171c93b9
#INSPVAA,ICOM1,0,83.5,FINESTEERING,2269,271159.472,00000000,01cf,769;2269,271159.472000000,23.26336609819,113.52489475974,27.1282,-1.3888,-2.6974,-0.0017,0.080588150,0.417455662,240.720295783,INS_SOLUTION_GOOD*90f16d99
#INSPVAA,ICOM1,0,83.5,FINESTEERING,2269,271159.480,00000000,01d7,769;2269,271159.480000000,23.26336599424,113.52489454992,27.1283,-1.3902,-2.6990,0.0001,0.073939557,0.418705145,240.710334541,INS_SOLUTION_GOOD*6c8f0311
#INSPVAA,ICOM1,0,83.5,FINESTEERING,2269,271159.488,00000000,01df,769;2269,271159.488000000,23.26336589030,113.52489434012,27.1283,-1.3905,-2.6993,0.0001,0.069623439,0.420352053,240.700783269,INS_SOLUTION_GOOD*201ee2ba
#INSPVAA,ICOM1,0,83.5,FINESTEERING,2269,271159.496,00000000,01e7,769;2269,271159.496000000,23.26336578636,113.52489413027,27.1284,-1.3904,-2.6998,0.0014,0.070626226,0.419515915,240.691360312,INS_SOLUTION_GOOD*e8cd4a96
#INSPVAA,ICOM1,0,83.5,FINESTEERING,2269,271159.504,00000000,01ef,769;2269,271159.504000000,23.26336568235,113.52489392039,27.1285,-1.3912,-2.7001,0.0006,0.064549863,0.418243940,240.681078912,INS_SOLUTION_GOOD*2dae4e1b
#INSPVAA,ICOM1,0,83.5,FINESTEERING,2269,271159.512,00000000,01f7,769;2269,271159.512000000,23.26336557833,113.52489371047,27.1285,-1.3918,-2.7005,0.0013,0.061189780,0.418395659,240.671293771,INS_SOLUTION_GOOD*13ea5bb2
#INSPVAA,ICOM1,0,83.5,FINESTEERING,2269,271159.520,00000000,01ff,769;2269,271159.520000000,23.26336547430,113.52489350057,27.1286,-1.3919,-2.7003,0.0008,0.058006677,0.418638003,240.661105732,INS_SOLUTION_GOOD*6dc73a91
#INSPVAA,ICOM1,0,83.5,FINESTEERING,2269,271159.528,00000000,0207,769;2269,271159.528000000,23.26336537011,113.52489329051,27.1287,-1.3942,-2.7020,0.0026,0.053854364,0.419862330,240.650955714,INS_SOLUTION_GOOD*18a2edf1
#INSPVAA,ICOM1,0,83.5,FINESTEERING,2269,271159.536,00000000,020f,769;2269,271159.536000000,23.26336526606,113.52489308038,27.1288,-1.3928,-2.7033,-0.0005,0.051619383,0.416618134,240.641350726,INS_SOLUTION_GOOD*6ddbd9e8
#INSPVAA,ICOM1,0,83.5,FINESTEERING,2269,271159.544,00000000,0217,769;2269,271159.544000000,23.26336516190,113.52489287033,27.1288,-1.3939,-2.7024,0.0010,0.052029981,0.419030700,240.630879309,INS_SOLUTION_GOOD*c9b09c2a
#INSPVAA,ICOM1,0,83.5,FINESTEERING,2269,271159.552,00000000,021f,769;2269,271159.552000000,23.26336505765,113.52489266006,27.1289,-1.3954,-2.7045,-0.0014,0.053897317,0.418403155,240.620393271,INS_SOLUTION_GOOD*11644fdf
#INSPVAA,ICOM1,0,83.5,FINESTEERING,2269,271159.560,00000000,0227,769;2269,271159.560000000,23.26336495346,113.52489244969,27.1290,-1.3950,-2.7063,-0.0006,0.052404212,0.418704495,240.610300413,INS_SOLUTION_GOOD*934acff5
#INSPVAA,ICOM1,0,83.5,FINESTEERING,2269,271159.568,00000000,022f,769;2269,271159.568000000,23.26336484922,113.52489223935,27.1290,-1.3956,-2.7061,0.0005,0.050292095,0.418631989,240.599176296,INS_SOLUTION_GOOD*e88f1022
#INSPVAA,ICOM1,0,83.5,FINESTEERING,2269,271159.576,00000000,0237,769;2269,271159.576000000,23.26336474490,113.52489202882,27.1291,-1.3966,-2.7080,-0.0019,0.048744150,0.418725684,240.588614512,INS_SOLUTION_GOOD*8248e31d
#INSPVAA,ICOM1,0,83.5,FINESTEERING,2269,271159.584,00000000,023f,769;2269,271159.584000000,23.26336464052,113.52489181826,27.1291,-1.3978,-2.7088,-0.0017,0.052944001,0.417761073,240.578017495,INS_SOLUTION_GOOD*336553a8
#INSPVAA,ICOM1,0,83.5,FINESTEERING,2269,271159.592,00000000,0247,769;2269,271159.592000000,23.26336453617,113.52489160764,27.1292,-1.3977,-2.7093,0.0002,0.056271248,0.419140114,240.567797410,INS_SOLUTION_GOOD*d028d4ba
#INSPVAA,ICOM1,0,83.5,FINESTEERING,2269,271159.600,00000000,024f,769;2269,271159.600000000,23.26336443177,113.52489139702,27.1293,-1.3981,-2.7093,-0.0011,0.055247904,0.419015960,240.557968483,INS_SOLUTION_GOOD*5ce9005c
#INSPVAA,ICOM1,0,83.5,FINESTEERING,2269,271159.608,00000000,0257,769;2269,271159.608000000,23.26336432752,113.52489118622,27.1293,-1.3964,-2.7111,-0.0021,0.054274903,0.417132016,240.547033387,INS_SOLUTION_GOOD*f0914673
#INSPVAA,ICOM1,0,83.5,FINESTEERING,2269,271159.616,00000000,025f,769;2269,271159.616000000,23.26336422326,113.52489097539,27.1294,-1.3960,-2.7119,-0.0008,0.052426292,0.415952253,240.535122287,INS_SOLUTION_GOOD*81d79f78
#INSPVAA,ICOM1,0,83.5,FINESTEERING,2269,271159.624,00000000,0267,769;2269,271159.624000000,23.26336411891,113.52489076458,27.1294,-1.3973,-2.7116,-0.0020,0.052889989,0.418760989,240.523978880,INS_SOLUTION_GOOD*f7ee5355
#INSPVAA,ICOM1,0,83.5,FINESTEERING,2269,271159.632,00000000,026f,769;2269,271159.632000000,23.26336401438,113.52489055373,27.1295,-1.4002,-2.7117,0.0002,0.059066995,0.419867439,240.513625233,INS_SOLUTION_GOOD*4cc6f655
#INSPVAA,ICOM1,0,83.5,FINESTEERING,2269,271159.640,00000000,0277,769;2269,271159.640000000,23.26336390997,113.52489034278,27.1296,-1.3996,-2.7129,0.0015,0.059208255,0.419522657,240.503774446,INS_SOLUTION_GOOD*94d16a61
#INSPVAA,ICOM1,0,83.5,FINESTEERING,2269,271159.648,00000000,027f,769;2269,271159.648000000,23.26336380562,113.52489013168,27.1297,-1.3983,-2.7148,0.0029,0.057219481,0.418504764,240.493225253,INS_SOLUTION_GOOD*47ecca0c
#INSPVAA,ICOM1,0,83.5,FINESTEERING,2269,271159.656,00000000,0287,769;2269,271159.656000000,23.26336370126,113.52488992073,27.1298,-1.3981,-2.7134,0.0017,0.055179698,0.414052150,240.480594829,INS_SOLUTION_GOOD*5c4507c3
#INSPVAA,ICOM1,0,83.5,FINESTEERING,2269,271159.664,00000000,028f,769;2269,271159.664000000,23.26336359685,113.52488970941,27.1299,-1.3989,-2.7171,0.0055,0.053566728,0.414258792,240.469586516,INS_SOLUTION_GOOD*1b726a79
#INSPVAA,ICOM1,0,83.5,FINESTEERING,2269,271159.672,00000000,0297,769;2269,271159.672000000,23.26336349221,113.52488949823,27.1300,-1.4023,-2.7165,0.0050,0.054222327,0.414061954,240.458779796,INS_SOLUTION_GOOD*eaa45b23
#INSPVAA,ICOM1,0,83.5,FINESTEERING,2269,271159.680,00000000,029f,769;2269,271159.680000000,23.26336338747,113.52488928717,27.1301,-1.4047,-2.7144,0.0057,0.057499837,0.412780492,240.450158605,INS_SOLUTION_GOOD*0dcc0f37
#INSPVAA,ICOM1,0,83.5,FINESTEERING,2269,271159.688,00000000,02a7,769;2269,271159.688000000,23.26336328286,113.52488907583,27.1302,-1.4034,-2.7169,0.0046,0.056299349,0.412202625,240.440215729,INS_SOLUTION_GOOD*456ae72f
#INSPVAA,ICOM1,0,83.5,FINESTEERING,2269,271159.696,00000000,02af,769;2269,271159.696000000,23.26336317811,113.52488886452,27.1303,-1.4044,-2.7175,0.0077,0.052551469,0.410279681,240.429553674,INS_SOLUTION_GOOD*b484f135
#INSPVAA,ICOM1,0,83.5,FINESTEERING,2269,271159.704,00000000,02b7,769;2269,271159.704000000,23.26336307334,113.52488865326,27.1304,-1.4051,-2.7168,0.0066,0.055845066,0.407277161,240.420323376,INS_SOLUTION_GOOD*85c73371
#INSPVAA,ICOM1,0,83.5,FINESTEERING,2269,271159.712,00000000,02bf,769;2269,271159.712000000,23.26336296847,113.52488844199,27.1305,-1.4064,-2.7164,0.0073,0.054638730,0.408966826,240.410922975,INS_SOLUTION_GOOD*5b0e7959
#INSPVAA,ICOM1,0,83.5,FINESTEERING,2269,271159.720,00000000,02c7,769;2269,271159.720000000,23.26336286350,113.52488823073,27.1307,-1.4081,-2.7162,0.0058,0.051613293,0.402043499,240.400544427,INS_SOLUTION_GOOD*e6c373d1
#INSPVAA,ICOM1,0,83.5,FINESTEERING,2269,271159.728,00000000,02cf,769;2269,271159.728000000,23.26336275835,113.52488801951,27.1308,-1.4108,-2.7156,0.0067,0.049693926,0.405264409,240.392154127,INS_SOLUTION_GOOD*f40f60d7
#INSPVAA,ICOM1,0,83.5,FINESTEERING,2269,271159.736,00000000,02d7,769;2269,271159.736000000,23.26336265320,113.52488780833,27.1309,-1.4114,-2.7150,0.0060,0.052798742,0.402738066,240.384849616,INS_SOLUTION_GOOD*70769715
#INSPVAA,ICOM1,0,83.5,FINESTEERING,2269,271159.744,00000000,02df,769;2269,271159.744000000,23.26336254795,113.52488759717,27.1310,-1.4125,-2.7146,0.0050,0.051636272,0.403365886,240.376617668,INS_SOLUTION_GOOD*71e9ee52
#INSPVAA,ICOM1,0,83.5,FINESTEERING,2269,271159.752,00000000,02e7,769;2269,271159.752000000,23.26336244255,113.52488738604,27.1311,-1.4146,-2.7141,0.0031,0.048874486,0.400569582,240.368607147,INS_SOLUTION_GOOD*e3ac9765
#INSPVAA,ICOM1,0,83.5,FINESTEERING,2269,271159.760,00000000,02ef,769;2269,271159.760000000,23.26336233711,113.52488717483,27.1312,-1.4156,-2.7151,0.0062,0.041905982,0.401196907,240.360898929,INS_SOLUTION_GOOD*ec82fd95
#INSPVAA,ICOM1,0,83.5,FINESTEERING,2269,271159.768,00000000,02f7,769;2269,271159.768000000,23.26336223153,113.52488696364,27.1313,-1.4175,-2.7151,0.0044,0.042620326,0.400723056,240.353618025,INS_SOLUTION_GOOD*6603f071
#INSPVAA,ICOM1,0,83.5,FINESTEERING,2269,271159.776,00000000,02ff,769;2269,271159.776000000,23.26336212578,113.52488675253,27.1314,-1.4200,-2.7141,0.0011,0.040973803,0.400265659,240.345804788,INS_SOLUTION_GOOD*5adeee00
#INSPVAA,ICOM1,0,83.5,FINESTEERING,2269,271159.784,00000000,0307,769;2269,271159.784000000,23.26336201993,113.52488654129,27.1315,-1.4217,-2.7153,0.0016,0.039016592,0.400353753,240.339978511,INS_SOLUTION_GOOD*4b70d937
#INSPVAA,ICOM1,0,83.5,FINESTEERING,2269,271159.792,00000000,030f,769;2269,271159.792000000,23.26336191392,113.52488633025,27.1316,-1.4240,-2.7133,0.0004,0.041085972,0.399816070,240.333528101,INS_SOLUTION_GOOD*ca29d4b9
#INSPVAA,ICOM1,0,83.5,FINESTEERING,2269,271159.800,00000000,0317,769;2269,271159.800000000,23.26336180788,113.52488611907,27.1316,-1.4248,-2.7142,-0.0004,0.038703587,0.403795518,240.327583078,INS_SOLUTION_GOOD*67807606
#INSPVAA,ICOM1,0,83.5,FINESTEERING,2269,271159.808,00000000,031f,769;2269,271159.808000000,23.26336170176,113.52488590800,27.1317,-1.4256,-2.7134,-0.0001,0.034482480,0.403658327,240.322044890,INS_SOLUTION_GOOD*1acd6166
#INSPVAA,ICOM1,0,83.5,FINESTEERING,2269,271159.816,00000000,0327,769;2269,271159.816000000,23.26336159553,113.52488569696,27.1318,-1.4270,-2.7127,0.0001,0.037009142,0.408943768,240.316229119,INS_SOLUTION_GOOD*c8e148f3
#INSPVAA,ICOM1,0,83.5,FINESTEERING,2269,271159.824,00000000,032f,769;2269,271159.824000000,23.26336148910,113.52488548604,27.1318,-1.4300,-2.7110,-0.0020,0.038401273,0.404574537,240.309956179,INS_SOLUTION_GOOD*fd09fdbb
#INSPVAA,ICOM1,0,83.5,FINESTEERING,2269,271159.832,00000000,0337,769;2269,271159.832000000,23.26336138263,113.52488527500,27.1319,-1.4310,-2.7122,0.0022,0.034276004,0.405828961,240.306104288,INS_SOLUTION_GOOD*1a08c473
#INSPVAA,ICOM1,0,83.5,FINESTEERING,2269,271159.840,00000000,033f,769;2269,271159.840000000,23.26336127612,113.52488506415,27.1320,-1.4316,-2.7103,-0.0003,0.042486326,0.405308398,240.301592966,INS_SOLUTION_GOOD*f34e0eda
#INSPVAA,ICOM1,0,83.5,FINESTEERING,2269,271159.848,00000000,0347,769;2269,271159.848000000,23.26336116962,113.52488485321,27.1320,-1.4313,-2.7108,-0.0012,0.040101067,0.408333476,240.297151836,INS_SOLUTION_GOOD*82589497
#INSPVAA,ICOM1,0,83.5,FINESTEERING,2269,271159.856,00000000,034f,769;2269,271159.856000000,23.26336106308,113.52488464219,27.1321,-1.4316,-2.7121,-0.0025,0.041736841,0.407942850,240.292534114,INS_SOLUTION_GOOD*e651effe
#INSPVAA,ICOM1,0,83.5,FINESTEERING,2269,271159.864,00000000,0357,769;2269,271159.864000000,23.26336095645,113.52488443124,27.1321,-1.4329,-2.7117,-0.0010,0.044774862,0.411258976,240.287769267,INS_SOLUTION_GOOD*8257b1ec
#INSPVAA,ICOM1,0,83.5,FINESTEERING,2269,271159.872,00000000,035f,769;2269,271159.872000000,23.26336084974,113.52488422015,27.1322,-1.4343,-2.7130,-0.0012,0.043580438,0.411579082,240.282575256,INS_SOLUTION_GOOD*0b12e700
#INSPVAA,ICOM1,0,83.5,FINESTEERING,2269,271159.880,00000000,0367,769;2269,271159.880000000,23.26336074311,113.52488400885,27.1323,-1.4337,-2.7160,0.0004,0.042100634,0.414266597,240.278847218,INS_SOLUTION_GOOD*bca7cf82
#INSPVAA,ICOM1,0,83.5,FINESTEERING,2269,271159.888,00000000,036f,769;2269,271159.888000000,23.26336063650,113.52488379784,27.1323,-1.4331,-2.7131,-0.0049,0.044602933,0.410193831,240.273917810,INS_SOLUTION_GOOD*9af19602
#INSPVAA,ICOM1,0,83.5,FINESTEERING,2269,271159.896,00000000,0377,769;2269,271159.896000000,23.26336052979,113.52488358656,27.1323,-1.4342,-2.7151,-0.0045,0.044612408,0.414554465,240.270212558,INS_SOLUTION_GOOD*00da7b15
#INSPVAA,ICOM1,0,83.5,FINESTEERING,2269,271159.904,00000000,037f,769;2269,271159.904000000,23.26336042328,113.52488337510,27.1324,-1.4321,-2.7178,-0.0018,0.045545512,0.416442794,240.266155533,INS_SOLUTION_GOOD*8ed735e8
#INSPVAA,ICOM1,0,83.5,FINESTEERING,2269,271159.912,00000000,0387,769;2269,271159.912000000,23.26336031672,113.52488316369,27.1324,-1.4320,-2.7179,-0.0037,0.043205654,0.422367327,240.260631664,INS_SOLUTION_GOOD*2adae580
#INSPVAA,ICOM1,0,83.5,FINESTEERING,2269,271159.920,00000000,038f,769;2269,271159.920000000,23.26336021010,113.52488295223,27.1324,-1.4333,-2.7181,-0.0044,0.044232621,0.422231289,240.255339595,INS_SOLUTION_GOOD*2c64380d
#INSPVAA,ICOM1,0,83.5,FINESTEERING,2269,271159.928,00000000,0397,769;2269,271159.928000000,23.26336010363,113.52488274058,27.1325,-1.4317,-2.7202,-0.0040,0.039599669,0.421676130,240.250686510,INS_SOLUTION_GOOD*5b6946d9
#INSPVAA,ICOM1,0,83.5,FINESTEERING,2269,271159.936,00000000,039f,769;2269,271159.936000000,23.26335999695,113.52488252896,27.1325,-1.4342,-2.7202,-0.0013,0.043279248,0.424899965,240.245918269,INS_SOLUTION_GOOD*9f78028f
#INSPVAA,ICOM1,0,83.5,FINESTEERING,2269,271159.944,00000000,03a7,769;2269,271159.944000000,23.26335989044,113.52488231720,27.1326,-1.4328,-2.7215,-0.0020,0.043149748,0.425391644,240.242556154,INS_SOLUTION_GOOD*6958519d
#INSPVAA,ICOM1,0,83.5,FINESTEERING,2269,271159.952,00000000,03af,769;2269,271159.952000000,23.26335978402,113.52488210527,27.1326,-1.4312,-2.7238,-0.0018,0.039889735,0.427072553,240.237485162,INS_SOLUTION_GOOD*6ff5b7b5
#INSPVAA,ICOM1,0,83.5,FINESTEERING,2269,271159.960,00000000,03b7,769;2269,271159.960000000,23.26335967748,113.52488189347,27.1327,-1.4324,-2.7226,-0.0024,0.040106123,0.428320767,240.231693492,INS_SOLUTION_GOOD*781135ee
#INSPVAA,ICOM1,0,83.5,FINESTEERING,2269,271159.968,00000000,03bf,769;2269,271159.968000000,23.26335957089,113.52488168139,27.1328,-1.4338,-2.7253,0.0004,0.038172563,0.431040780,240.226662318,INS_SOLUTION_GOOD*f0470cb4
#INSPVAA,ICOM1,0,83.5,FINESTEERING,2269,271159.976,00000000,03c7,769;2269,271159.976000000,23.26335946415,113.52488146932,27.1328,-1.4363,-2.7257,0.0010,0.039622191,0.431954043,240.221968533,INS_SOLUTION_GOOD*5e59c16e
#INSPVAA,ICOM1,0,83.5,FINESTEERING,2269,271159.984,00000000,03cf,769;2269,271159.984000000,23.26335935735,113.52488125716,27.1329,-1.4376,-2.7267,0.0001,0.038626603,0.430594323,240.218198958,INS_SOLUTION_GOOD*dac05e38
#INSPVAA,ICOM1,0,83.5,FINESTEERING,2269,271159.992,00000000,03d7,769;2269,271159.992000000,23.26335925061,113.52488104480,27.1330,-1.4370,-2.7290,0.0045,0.036634785,0.431489528,240.214151028,INS_SOLUTION_GOOD*ec830a12
#INSPVAA,ICOM1,0,83.5,FINESTEERING,2269,271160.000,00000000,03df,769;2269,271160.000000000,23.26335914390,113.52488083241,27.1331,-1.4363,-2.7298,0.0016,0.035655937,0.430139510,240.208879261,INS_SOLUTION_GOOD*dcfeacd9
#INSPVAA,ICOM1,0,83.5,FINESTEERING,2269,271160.008,00000000,03e7,769;2269,271160.008000000,23.26335903984,113.52488061892,27.1331,-1.4402,-2.7312,0.0033,0.033986568,0.431359546,240.203793565,INS_SOLUTION_GOOD*eb9d776b
#INSPVAA,ICOM1,0,83.5,FINESTEERING,2269,271160.016,00000000,0007,769;2269,271160.016000000,23.26335893577,113.52488040543,27.1332,-1.4415,-2.7314,0.0075,0.032306225,0.432884041,240.199911862,INS_SOLUTION_GOOD*4fb79c48
#INSPVAA,ICOM1,0,83.5,FINESTEERING,2269,271160.024,00000000,000f,769;2269,271160.024000000,23.26335883162,113.52488019183,27.1332,-1.4426,-2.7324,0.0068,0.033404849,0.431943671,240.196404721,INS_SOLUTION_GOOD*c4f63c34
#INSPVAA,ICOM1,0,83.5,FINESTEERING,2269,271160.032,00000000,0017,769;2269,271160.032000000,23.26335872738,113.52487997810,27.1333,-1.4437,-2.7341,0.0073,0.031059423,0.428368270,240.192210513,INS_SOLUTION_GOOD*520210b3
#INSPVAA,ICOM1,0,83.5,FINESTEERING,2269,271160.040,00000000,001f,769;2269,271160.040000000,23.26335862324,113.52487976420,27.1334,-1.4425,-2.7364,0.0135,0.029902929,0.427083738,240.188658191,INS_SOLUTION_GOOD*75d0500f
#INSPVAA,ICOM1,0,83.5,FINESTEERING,2269,271160.048,00000000,0027,769;2269,271160.048000000,23.26335851888,113.52487955038,27.1334,-1.4447,-2.7358,0.0098,0.033781681,0.424020521,240.183212777,INS_SOLUTION_GOOD*8348234e
#INSPVAA,ICOM1,0,83.5,FINESTEERING,2269,271160.056,00000000,002f,769;2269,271160.056000000,23.26335841437,113.52487933648,27.1335,-1.4472,-2.7363,0.0120,0.029994159,0.421430397,240.179370328,INS_SOLUTION_GOOD*e65e451e
#BESTPOSA,ICOM1,0,83.5,FINESTEERING,2269,271160.000,00000000,0001,769;SOL_COMPUTED,NARROW_INT,23.26335728308,113.52487842386,34.6321,-6.3551,WGS84,0.0123,0.0110,0.0246,"3973",1.000,0.050,56,25,25,25,00,00,30,37*c1ced490
#INSPVAA,ICOM1,0,83.5,FINESTEERING,2269,271160.064,00000000,0037,769;2269,271160.064000000,23.26335830986,113.52487912248,27.1336,-1.4476,-2.7374,0.0145,0.027542093,0.420618798,240.175803265,INS_SOLUTION_GOOD*97b185f3
#INSPVAA,ICOM1,0,83.5,FINESTEERING,2269,271160.072,00000000,003f,769;2269,271160.072000000,23.26335820525,113.52487890841,27.1337,-1.4488,-2.7385,0.0122,0.033391988,0.416131341,240.172403270,INS_SOLUTION_GOOD*55ea18d9
#INSPVAA,ICOM1,0,83.5,FINESTEERING,2269,271160.080,00000000,0047,769;2269,271160.080000000,23.26335810054,113.52487869412,27.1338,-1.4501,-2.7411,0.0132,0.029290322,0.412858252,240.167923298,INS_SOLUTION_GOOD*0e51c093
#INSPVAA,ICOM1,0,83.5,FINESTEERING,2269,271160.088,00000000,004f,769;2269,271160.088000000,23.26335799574,113.52487847978,27.1340,-1.4514,-2.7424,0.0154,0.030880838,0.410372911,240.163855691,INS_SOLUTION_GOOD*5d59a807
#INSPVAA,ICOM1,0,83.5,FINESTEERING,2269,271160.096,00000000,0057,769;2269,271160.096000000,23.26335789092,113.52487826536,27.1340,-1.4518,-2.7433,0.0126,0.028017936,0.408505735,240.159917681,INS_SOLUTION_GOOD*36f516c1
#INSPVAA,ICOM1,0,83.5,FINESTEERING,2269,271160.104,00000000,005f,769;2269,271160.104000000,23.26335778593,113.52487805071,27.1342,-1.4537,-2.7460,0.0135,0.024874031,0.404490863,240.156268117,INS_SOLUTION_GOOD*4e4b1792
#INSPVAA,ICOM1,0,83.5,FINESTEERING,2269,271160.112,00000000,0067,769;2269,271160.112000000,23.26335768098,113.52487783604,27.1342,-1.4536,-2.7467,0.0114,0.029448452,0.401107158,240.152906326,INS_SOLUTION_GOOD*22f5225b
#INSPVAA,ICOM1,0,83.5,FINESTEERING,2269,271160.120,00000000,006f,769;2269,271160.120000000,23.26335757588,113.52487762115,27.1343,-1.4553,-2.7492,0.0121,0.029494125,0.401698172,240.148978380,INS_SOLUTION_GOOD*e6430dea
#INSPVAA,ICOM1,0,83.5,FINESTEERING,2269,271160.128,00000000,0077,769;2269,271160.128000000,23.26335747071,113.52487740606,27.1344,-1.4565,-2.7519,0.0117,0.026160892,0.396867280,240.144848470,INS_SOLUTION_GOOD*98c19049
#INSPVAA,ICOM1,0,83.5,FINESTEERING,2269,271160.136,00000000,007f,769;2269,271160.136000000,23.26335736556,113.52487719088,27.1345,-1.4563,-2.7535,0.0114,0.028539819,0.395236787,240.141212955,INS_SOLUTION_GOOD*afcdad97
#INSPVAA,ICOM1,0,83.5,FINESTEERING,2269,271160.144,00000000,0087,769;2269,271160.144000000,23.26335726032,113.52487697560,27.1346,-1.4572,-2.7545,0.0092,0.026507454,0.393866282,240.136007947,INS_SOLUTION_GOOD*db10ba19
#INSPVAA,ICOM1,0,83.5,FINESTEERING,2269,271160.152,00000000,008f,769;2269,271160.152000000,23.26335715510,113.52487676016,27.1347,-1.4569,-2.7563,0.0087,0.025785179,0.390739198,240.132487017,INS_SOLUTION_GOOD*5f7ae657
#INSPVAA,ICOM1,0,83.5,FINESTEERING,2269,271160.160,00000000,0097,769;2269,271160.160000000,23.26335704991,113.52487654462,27.1348,-1.4565,-2.7576,0.0100,0.026816986,0.389914681,240.127990272,INS_SOLUTION_GOOD*d6472a4e
#INSPVAA,ICOM1,0,83.5,FINESTEERING,2269,271160.168,00000000,009f,769;2269,271160.168000000,23.26335694458,113.52487632900,27.1349,-1.4580,-2.7586,0.0105,0.025322362,0.390230974,240.123314633,INS_SOLUTION_GOOD*a87ae263
#INSPVAA,ICOM1,0,83.5,FINESTEERING,2269,271160.176,00000000,00a7,769;2269,271160.176000000,23.26335683935,113.52487611320,27.1349,-1.4572,-2.7607,0.0073,0.020674281,0.383137751,240.118891168,INS_SOLUTION_GOOD*618b5f7a
#INSPVAA,ICOM1,0,83.5,FINESTEERING,2269,271160.184,00000000,00af,769;2269,271160.184000000,23.26335673392,113.52487589726,27.1350,-1.4593,-2.7627,0.0114,0.021622599,0.383789592,240.113729850,INS_SOLUTION_GOOD*0e044a34
#INSPVAA,ICOM1,0,83.5,FINESTEERING,2269,271160.192,00000000,00b7,769;2269,271160.192000000,23.26335662857,113.52487568127,27.1351,-1.4590,-2.7636,0.0106,0.023007178,0.384882805,240.110022794,INS_SOLUTION_GOOD*3ebbb709
#INSPVAA,ICOM1,0,83.5,FINESTEERING,2269,271160.200,00000000,00bf,769;2269,271160.200000000,23.26335652317,113.52487546509,27.1351,-1.4593,-2.7657,0.0060,0.022727816,0.379059165,240.105123236,INS_SOLUTION_GOOD*df377e62
#INSPVAA,ICOM1,0,83.5,FINESTEERING,2269,271160.208,00000000,00c7,769;2269,271160.208000000,23.26335641774,113.52487524885,27.1352,-1.4597,-2.7666,0.0102,0.018571434,0.375880198,240.099556734,INS_SOLUTION_GOOD*8e5553a8
#INSPVAA,ICOM1,0,83.5,FINESTEERING,2269,271160.216,00000000,00cf,769;2269,271160.216000000,23.26335631225,113.52487503233,27.1353,-1.4606,-2.7700,0.0134,0.016110754,0.378001639,240.094902226,INS_SOLUTION_GOOD*4472e866
#INSPVAA,ICOM1,0,83.5,FINESTEERING,2269,271160.224,00000000,00d7,769;2269,271160.224000000,23.26335620659,113.52487481587,27.1354,-1.4629,-2.7699,0.0058,0.025356166,0.374237448,240.089342333,INS_SOLUTION_GOOD*654e6a2a
#INSPVAA,ICOM1,0,83.5,FINESTEERING,2269,271160.232,00000000,00df,769;2269,271160.232000000,23.26335610100,113.52487459916,27.1354,-1.4626,-2.7723,0.0089,0.022466082,0.371682204,240.085227740,INS_SOLUTION_GOOD*d4bd65dc
#INSPVAA,ICOM1,0,83.5,FINESTEERING,2269,271160.240,00000000,00e7,769;2269,271160.240000000,23.26335599530,113.52487438233,27.1355,-1.4635,-2.7741,0.0096,0.022468716,0.372039414,240.080104453,INS_SOLUTION_GOOD*13d99670
#INSPVAA,ICOM1,0,83.5,FINESTEERING,2269,271160.248,00000000,00ef,769;2269,271160.248000000,23.26335588957,113.52487416553,27.1356,-1.4641,-2.7740,0.0046,0.024012735,0.368412639,240.074794279,INS_SOLUTION_GOOD*5118f1a0
#INSPVAA,ICOM1,0,83.5,FINESTEERING,2269,271160.256,00000000,00f7,769;2269,271160.256000000,23.26335578389,113.52487394846,27.1356,-1.4635,-2.7767,0.0062,0.019476350,0.366968072,240.069295952,INS_SOLUTION_GOOD*b6e8debc
#INSPVAA,ICOM1,0,83.5,FINESTEERING,2269,271160.264,00000000,00ff,769;2269,271160.264000000,23.26335567806,113.52487373146,27.1357,-1.4649,-2.7765,0.0062,0.025879979,0.369617058,240.064340956,INS_SOLUTION_GOOD*ad12ef4b
#INSPVAA,ICOM1,0,83.5,FINESTEERING,2269,271160.272,00000000,0107,769;2269,271160.272000000,23.26335557222,113.52487351441,27.1357,-1.4656,-2.7766,0.0053,0.027620134,0.371597853,240.059483501,INS_SOLUTION_GOOD*6ffd48c4
#INSPVAA,ICOM1,0,83.5,FINESTEERING,2269,271160.280,00000000,010f,769;2269,271160.280000000,23.26335546640,113.52487329724,27.1357,-1.4653,-2.7778,0.0042,0.025388085,0.364152395,240.054219473,INS_SOLUTION_GOOD*62b9b822
#INSPVAA,ICOM1,0,83.5,FINESTEERING,2269,271160.288,00000000,0117,769;2269,271160.288000000,23.26335536053,113.52487307992,27.1358,-1.4657,-2.7800,0.0067,0.021902234,0.367713385,240.048517121,INS_SOLUTION_GOOD*5cb352c0
#INSPVAA,ICOM1,0,83.5,FINESTEERING,2269,271160.296,00000000,011f,769;2269,271160.296000000,23.26335525453,113.52487286274,27.1358,-1.4675,-2.7787,0.0038,0.023710620,0.364609063,240.042883994,INS_SOLUTION_GOOD*27765faf
#INSPVAA,ICOM1,0,83.5,FINESTEERING,2269,271160.304,00000000,0127,769;2269,271160.304000000,23.26335513846,113.52487264988,27.1360,-1.4701,-2.7798,0.0027,0.029565253,0.366793307,240.038598804,INS_SOLUTION_GOOD*f080cc1d
#INSPVAA,ICOM1,0,83.5,FINESTEERING,2269,271160.312,00000000,012f,769;2269,271160.312000000,23.26335502766,113.52487243449,27.1361,-1.4702,-2.7822,0.0036,0.028710052,0.369138514,240.033644432,INS_SOLUTION_GOOD*83dee61a
#INSPVAA,ICOM1,0,83.5,FINESTEERING,2269,271160.320,00000000,0137,769;2269,271160.320000000,23.26335491677,113.52487221911,27.1362,-1.4711,-2.7824,0.0046,0.022729584,0.365328892,240.027709553,INS_SOLUTION_GOOD*73fecbfa
#INSPVAA,ICOM1,0,83.5,FINESTEERING,2269,271160.328,00000000,013f,769;2269,271160.328000000,23.26335480591,113.52487200350,27.1363,-1.4710,-2.7850,0.0029,0.017488958,0.368636854,240.022475179,INS_SOLUTION_GOOD*2f8d4a9d
#INSPVAA,ICOM1,0,83.5,FINESTEERING,2269,271160.336,00000000,0147,769;2269,271160.336000000,23.26335469486,113.52487178799,27.1364,-1.4732,-2.7843,-0.0014,0.023296541,0.364604645,240.016730066,INS_SOLUTION_GOOD*09516ff2
#INSPVAA,ICOM1,0,83.5,FINESTEERING,2269,271160.344,00000000,014f,769;2269,271160.344000000,23.26335458354,113.52487157228,27.1365,-1.4773,-2.7860,0.0025,0.023092391,0.370288824,240.013708398,INS_SOLUTION_GOOD*44e7d3d5
#INSPVAA,ICOM1,0,83.5,FINESTEERING,2269,271160.352,00000000,0157,769;2269,271160.352000000,23.26335447228,113.52487135655,27.1365,-1.4777,-2.7865,0.0019,0.021593988,0.372377902,240.009176408,INS_SOLUTION_GOOD*21daebff
#INSPVAA,ICOM1,0,83.5,FINESTEERING,2269,271160.360,00000000,015f,769;2269,271160.360000000,23.26335436113,113.52487114078,27.1366,-1.4759,-2.7869,-0.0011,0.015982009,0.370304959,240.004284982,INS_SOLUTION_GOOD*eb3fcadf
#INSPVAA,ICOM1,0,83.5,FINESTEERING,2269,271160.368,00000000,0167,769;2269,271160.368000000,23.26335424990,113.52487092486,27.1367,-1.4761,-2.7886,0.0010,0.009459351,0.375419056,239.998643766,INS_SOLUTION_GOOD*0307763d
#INSPVAA,ICOM1,0,83.5,FINESTEERING,2269,271160.376,00000000,016f,769;2269,271160.376000000,23.26335413847,113.52487070891,27.1368,-1.4789,-2.7893,-0.0012,0.011808239,0.371015397,239.993286707,INS_SOLUTION_GOOD*238dfbe8
#INSPVAA,ICOM1,0,83.5,FINESTEERING,2269,271160.384,00000000,0177,769;2269,271160.384000000,23.26335402690,113.52487049292,27.1369,-1.4817,-2.7897,0.0041,0.011133037,0.378569693,239.989382692,INS_SOLUTION_GOOD*4f87ecbc
#INSPVAA,ICOM1,0,83.5,FINESTEERING,2269,271160.392,00000000,017f,769;2269,271160.392000000,23.26335391537,113.52487027684,27.1369,-1.4818,-2.7905,-0.0001,0.011395569,0.376146568,239.986209234,INS_SOLUTION_GOOD*d1704097
#INSPVAA,ICOM1,0,83.5,FINESTEERING,2269,271160.400,00000000,0187,769;2269,271160.400000000,23.26335380375,113.52487006068,27.1370,-1.4825,-2.7916,-0.0037,0.002696329,0.374276925,239.980741543,INS_SOLUTION_GOOD*5b1c8e49
#INSPVAA,ICOM1,0,83.5,FINESTEERING,2269,271160.408,00000000,018f,769;2269,271160.408000000,23.26335369206,113.52486984448,27.1371,-1.4836,-2.7921,0.0013,0.004598308,0.378929061,239.975990544,INS_SOLUTION_GOOD*5b897cf6
#INSPVAA,ICOM1,0,83.5,FINESTEERING,2269,271160.416,00000000,0197,769;2269,271160.416000000,23.26335358032,113.52486962809,27.1371,-1.4845,-2.7943,-0.0036,0.005866324,0.379299309,239.971604891,INS_SOLUTION_GOOD*bfa40e4d
#INSPVAA,ICOM1,0,83.5,FINESTEERING,2269,271160.424,00000000,019f,769;2269,271160.424000000,23.26335346824,113.52486941156,27.1371,-1.4890,-2.7965,-0.0020,0.000117549,0.383397760,239.967036710,INS_SOLUTION_GOOD*526426b7
#INSPVAA,ICOM1,0,83.5,FINESTEERING,2269,271160.432,00000000,01a7,769;2269,271160.432000000,23.26335335614,113.52486919511,27.1372,-1.4906,-2.7958,0.0001,0.000282096,0.382167182,239.963421460,INS_SOLUTION_GOOD*a36e31d8
#INSPVAA,ICOM1,0,83.5,FINESTEERING,2269,271160.440,00000000,01af,769;2269,271160.440000000,23.26335324396,113.52486897851,27.1373,-1.4915,-2.7969,-0.0038,0.001350129,0.383499820,239.960208460,INS_SOLUTION_GOOD*363b75b6
#INSPVAA,ICOM1,0,82.1,FINESTEERING,2269,271160.448,00000000,01b7,769;2269,271160.448000000,23.26335313176,113.52486876184,27.1373,-1.4917,-2.7978,-0.0048,-0.002228727,0.387092075,239.956762544,INS_SOLUTION_GOOD*bfeae833
#INSPVAA,ICOM1,0,82.1,FINESTEERING,2269,271160.456,00000000,01bf,769;2269,271160.456000000,23.26335301938,113.52486854507,27.1374,-1.4939,-2.7991,-0.0001,0.004541331,0.389476867,239.952711141,INS_SOLUTION_GOOD*c2a01a0f
#INSPVAA,ICOM1,0,82.1,FINESTEERING,2269,271160.464,00000000,01c7,769;2269,271160.464000000,23.26335290689,113.52486832816,27.1374,-1.4958,-2.8009,-0.0021,0.003588701,0.392893984,239.949270203,INS_SOLUTION_GOOD*306611fe
#INSPVAA,ICOM1,0,82.1,FINESTEERING,2269,271160.472,00000000,01cf,769;2269,271160.472000000,23.26335279441,113.52486811123,27.1375,-1.4960,-2.8014,0.0000,-0.000647349,0.393001921,239.945697159,INS_SOLUTION_GOOD*b2dcbc16
#INSPVAA,ICOM1,0,82.1,FINESTEERING,2269,271160.480,00000000,01d7,769;2269,271160.480000000,23.26335268182,113.52486789423,27.1375,-1.4973,-2.8019,-0.0027,0.001559387,0.389546306,239.941729684,INS_SOLUTION_GOOD*16952b86
#INSPVAA,ICOM1,0,82.1,FINESTEERING,2269,271160.488,00000000,01df,769;2269,271160.488000000,23.26335256924,113.52486767692,27.1376,-1.4974,-2.8056,-0.0017,-0.000556454,0.398378557,239.938415619,INS_SOLUTION_GOOD*bc31ef6f
#INSPVAA,ICOM1,0,82.1,FINESTEERING,2269,271160.496,00000000,01e7,769;2269,271160.496000000,23.26335245655,113.52486745975,27.1376,-1.4986,-2.8048,-0.0053,0.005084895,0.393846098,239.935271132,INS_SOLUTION_GOOD*48f5a702
#INSPVAA,ICOM1,0,82.1,FINESTEERING,2269,271160.504,00000000,01ef,769;2269,271160.504000000,23.26335234377,113.52486724227,27.1377,-1.5002,-2.8076,-0.0020,0.003236704,0.401036410,239.932199914,INS_SOLUTION_GOOD*296a53a7
#INSPVAA,ICOM1,0,82.1,FINESTEERING,2269,271160.512,00000000,01f7,769;2269,271160.512000000,23.26335223100,113.52486702476,27.1377,-1.5004,-2.8088,-0.0051,0.000067341,0.400989274,239.929248614,INS_SOLUTION_GOOD*8ea4fd6a
#INSPVAA,ICOM1,0,82.1,FINESTEERING,2269,271160.520,00000000,01ff,769;2269,271160.520000000,23.26335211826,113.52486680712,27.1377,-1.4999,-2.8101,-0.0060,-0.002461353,0.402318168,239.926319633,INS_SOLUTION_GOOD*8d7a4d7a
#INSPVAA,ICOM1,0,82.1,FINESTEERING,2269,271160.528,00000000,0207,769;2269,271160.528000000,23.26335200546,113.52486658932,27.1377,-1.5004,-2.8120,-0.0071,-0.003665560,0.405965849,239.923454552,INS_SOLUTION_GOOD*4bb77e8a
#INSPVAA,ICOM1,0,82.1,FINESTEERING,2269,271160.536,00000000,020f,769;2269,271160.536000000,23.26335189249,113.52486637141,27.1378,-1.5029,-2.8136,-0.0075,-0.004066914,0.408273876,239.920848619,INS_SOLUTION_GOOD*d667ec10
#INSPVAA,ICOM1,0,82.1,FINESTEERING,2269,271160.544,00000000,0217,769;2269,271160.544000000,23.26335177954,113.52486615333,27.1378,-1.5034,-2.8157,-0.0063,-0.004951053,0.409616891,239.918507857,INS_SOLUTION_GOOD*a408ef4c
#INSPVAA,ICOM1,0,82.1,FINESTEERING,2269,271160.552,00000000,021f,769;2269,271160.552000000,23.26335166663,113.52486593527,27.1378,-1.5029,-2.8156,-0.0046,-0.008740055,0.415313772,239.916462369,INS_SOLUTION_GOOD*5de6dbcb
#INSPVAA,ICOM1,0,82.1,FINESTEERING,2269,271160.560,00000000,0227,769;2269,271160.560000000,23.26335155364,113.52486571704,27.1378,-1.5036,-2.8171,-0.0101,-0.012533357,0.412577378,239.913585887,INS_SOLUTION_GOOD*db7ec3bc
#INSPVAA,ICOM1,0,82.1,FINESTEERING,2269,271160.568,00000000,022f,769;2269,271160.568000000,23.26335144062,113.52486549866,27.1378,-1.5044,-2.8190,-0.0035,-0.016181068,0.417054718,239.909794208,INS_SOLUTION_GOOD*7e9f7711
#INSPVAA,ICOM1,0,82.1,FINESTEERING,2269,271160.576,00000000,0237,769;2269,271160.576000000,23.26335132747,113.52486528004,27.1379,-1.5062,-2.8223,-0.0047,-0.019210552,0.417348981,239.908131509,INS_SOLUTION_GOOD*c7356ecf
#INSPVAA,ICOM1,0,82.1,FINESTEERING,2269,271160.584,00000000,023f,769;2269,271160.584000000,23.26335121424,113.52486506145,27.1379,-1.5079,-2.8223,-0.0058,-0.018657661,0.418211298,239.905546450,INS_SOLUTION_GOOD*f177c938
#INSPVAA,ICOM1,0,82.1,FINESTEERING,2269,271160.592,00000000,0247,769;2269,271160.592000000,23.26335110108,113.52486484263,27.1379,-1.5072,-2.8246,-0.0066,-0.024296692,0.418313758,239.903730274,INS_SOLUTION_GOOD*4a8a2dad
#INSPVAA,ICOM1,0,82.1,FINESTEERING,2269,271160.600,00000000,024f,769;2269,271160.600000000,23.26335098775,113.52486462370,27.1379,-1.5090,-2.8262,-0.0080,-0.028200689,0.420034530,239.901019842,INS_SOLUTION_GOOD*de7e292f
#INSPVAA,ICOM1,0,82.1,FINESTEERING,2269,271160.608,00000000,0257,769;2269,271160.608000000,23.26335087442,113.52486440472,27.1379,-1.5097,-2.8269,-0.0073,-0.028218766,0.423611881,239.898619472,INS_SOLUTION_GOOD*db7dff0c
#INSPVAA,ICOM1,0,82.1,FINESTEERING,2269,271160.616,00000000,025f,769;2269,271160.616000000,23.26335076095,113.52486418554,27.1379,-1.5115,-2.8290,-0.0067,-0.029343983,0.426043223,239.896506991,INS_SOLUTION_GOOD*032cf858
#INSPVAA,ICOM1,0,82.1,FINESTEERING,2269,271160.624,00000000,0267,769;2269,271160.624000000,23.26335064741,113.52486396631,27.1379,-1.5129,-2.8299,-0.0091,-0.030977729,0.425206853,239.894786762,INS_SOLUTION_GOOD*f76898fa
#INSPVAA,ICOM1,0,82.1,FINESTEERING,2269,271160.632,00000000,026f,769;2269,271160.632000000,23.26335053387,113.52486374698,27.1379,-1.5130,-2.8309,-0.0086,-0.031490322,0.427659157,239.892978035,INS_SOLUTION_GOOD*32e62805
#INSPVAA,ICOM1,0,82.1,FINESTEERING,2269,271160.640,00000000,0277,769;2269,271160.640000000,23.26335042026,113.52486352752,27.1379,-1.5138,-2.8325,-0.0078,-0.031395169,0.430682229,239.891200330,INS_SOLUTION_GOOD*6acea5d4
#INSPVAA,ICOM1,0,82.1,FINESTEERING,2269,271160.648,00000000,027f,769;2269,271160.648000000,23.26335030650,113.52486330794,27.1379,-1.5160,-2.8340,-0.0080,-0.028497480,0.431754595,239.888948457,INS_SOLUTION_GOOD*1c556669
#INSPVAA,ICOM1,0,82.1,FINESTEERING,2269,271160.656,00000000,0287,769;2269,271160.656000000,23.26335019269,113.52486308836,27.1380,-1.5173,-2.8342,-0.0047,-0.031984336,0.435155266,239.887193844,INS_SOLUTION_GOOD*d7e5522b
#INSPVAA,ICOM1,0,82.1,FINESTEERING,2269,271160.664,00000000,028f,769;2269,271160.664000000,23.26335007882,113.52486286858,27.1380,-1.5181,-2.8362,-0.0030,-0.026675942,0.435089531,239.886958650,INS_SOLUTION_GOOD*eb4124b8
#INSPVAA,ICOM1,0,82.1,FINESTEERING,2269,271160.672,00000000,0297,769;2269,271160.672000000,23.26334996495,113.52486264857,27.1381,-1.5182,-2.8393,-0.0028,-0.025931740,0.434271119,239.885398146,INS_SOLUTION_GOOD*07e081c4
#INSPVAA,ICOM1,0,82.1,FINESTEERING,2269,271160.680,00000000,029f,769;2269,271160.680000000,23.26334985104,113.52486242858,27.1381,-1.5186,-2.8396,-0.0013,-0.023631540,0.432354294,239.882823050,INS_SOLUTION_GOOD*5988ec1a
#INSPVAA,ICOM1,0,82.1,FINESTEERING,2269,271160.688,00000000,02a7,769;2269,271160.688000000,23.26334973704,113.52486220831,27.1382,-1.5197,-2.8425,-0.0002,-0.022974181,0.434947325,239.881828947,INS_SOLUTION_GOOD*c3e368c3
#INSPVAA,ICOM1,0,82.1,FINESTEERING,2269,271160.696,00000000,02af,769;2269,271160.696000000,23.26334962299,113.52486198808,27.1382,-1.5209,-2.8426,-0.0000,-0.022169067,0.433047663,239.879985230,INS_SOLUTION_GOOD*09d4295a
#INSPVAA,ICOM1,0,82.1,FINESTEERING,2269,271160.704,00000000,02b7,769;2269,271160.704000000,23.26334950883,113.52486176766,27.1383,-1.5224,-2.8443,0.0024,-0.019710910,0.433976305,239.879500521,INS_SOLUTION_GOOD*396e8672
#INSPVAA,ICOM1,0,82.1,FINESTEERING,2269,271160.712,00000000,02bf,769;2269,271160.712000000,23.26334939480,113.52486154715,27.1384,-1.5212,-2.8456,0.0014,-0.019441279,0.433029125,239.878993411,INS_SOLUTION_GOOD*05f5d03e
#INSPVAA,ICOM1,0,82.1,FINESTEERING,2269,271160.720,00000000,02c7,769;2269,271160.720000000,23.26334928068,113.52486132644,27.1385,-1.5219,-2.8480,0.0046,-0.016109258,0.431446920,239.876815421,INS_SOLUTION_GOOD*e044aa36
#INSPVAA,ICOM1,0,82.1,FINESTEERING,2269,271160.728,00000000,02cf,769;2269,271160.728000000,23.26334916651,113.52486110553,27.1386,-1.5226,-2.8507,0.0044,-0.018559116,0.429806187,239.875448060,INS_SOLUTION_GOOD*b8c99a20
#INSPVAA,ICOM1,0,82.1,FINESTEERING,2269,271160.736,00000000,02d7,769;2269,271160.736000000,23.26334905231,113.52486088455,27.1387,-1.5235,-2.8519,0.0053,-0.019281846,0.427691494,239.873993289,INS_SOLUTION_GOOD*83ac2b84
#INSPVAA,ICOM1,0,82.1,FINESTEERING,2269,271160.744,00000000,02df,769;2269,271160.744000000,23.26334893809,113.52486066358,27.1388,-1.5238,-2.8516,0.0016,-0.018366040,0.425884883,239.872606431,INS_SOLUTION_GOOD*459d20d3
#INSPVAA,ICOM1,0,82.1,FINESTEERING,2269,271160.752,00000000,02e7,769;2269,271160.752000000,23.26334882381,113.52486044238,27.1389,-1.5247,-2.8538,0.0037,-0.022939501,0.427583973,239.871565235,INS_SOLUTION_GOOD*43219fb5
#INSPVAA,ICOM1,0,82.1,FINESTEERING,2269,271160.760,00000000,02ef,769;2269,271160.760000000,23.26334870954,113.52486022116,27.1390,-1.5249,-2.8544,0.0065,-0.020014126,0.427350188,239.871083009,INS_SOLUTION_GOOD*6db3ce88
#INSPVAA,ICOM1,0,82.1,FINESTEERING,2269,271160.768,00000000,02f7,769;2269,271160.768000000,23.26334859529,113.52485999966,27.1391,-1.5247,-2.8575,0.0051,-0.020718084,0.427809047,239.868745219,INS_SOLUTION_GOOD*4cee4389
#INSPVAA,ICOM1,0,82.1,FINESTEERING,2269,271160.776,00000000,02ff,769;2269,271160.776000000,23.26334848094,113.52485977815,27.1392,-1.5259,-2.8584,0.0057,-0.027467965,0.424251100,239.866903389,INS_SOLUTION_GOOD*66862694
#INSPVAA,ICOM1,0,82.1,FINESTEERING,2269,271160.784,00000000,0307,769;2269,271160.784000000,23.26334836652,113.52485955649,27.1393,-1.5271,-2.8599,0.0074,-0.026544640,0.425169629,239.865534451,INS_SOLUTION_GOOD*0d5553cd
#INSPVAA,ICOM1,0,82.1,FINESTEERING,2269,271160.792,00000000,030f,769;2269,271160.792000000,23.26334825208,113.52485933468,27.1395,-1.5278,-2.8617,0.0058,-0.027903921,0.423040374,239.864622480,INS_SOLUTION_GOOD*c7fdcaa7
#INSPVAA,ICOM1,0,82.1,FINESTEERING,2269,271160.800,00000000,0317,769;2269,271160.800000000,23.26334813754,113.52485911284,27.1396,-1.5294,-2.8623,0.0068,-0.031231557,0.422916691,239.862450127,INS_SOLUTION_GOOD*8b578dfb
#INSPVAA,ICOM1,0,82.1,FINESTEERING,2269,271160.808,00000000,031f,769;2269,271160.808000000,23.26334802306,113.52485889093,27.1397,-1.5288,-2.8627,0.0067,-0.031285692,0.422098318,239.860987913,INS_SOLUTION_GOOD*17ca79ff
#INSPVAA,ICOM1,0,82.1,FINESTEERING,2269,271160.816,00000000,0327,769;2269,271160.816000000,23.26334790840,113.52485866885,27.1398,-1.5308,-2.8646,0.0070,-0.033214247,0.424122774,239.859417120,INS_SOLUTION_GOOD*af5db9eb
#INSPVAA,ICOM1,0,82.1,FINESTEERING,2269,271160.824,00000000,032f,769;2269,271160.824000000,23.26334779373,113.52485844671,27.1399,-1.5316,-2.8657,0.0064,-0.033009463,0.423828165,239.857532157,INS_SOLUTION_GOOD*1f19aafd
#INSPVAA,ICOM1,0,82.1,FINESTEERING,2269,271160.832,00000000,0337,769;2269,271160.832000000,23.26334767901,113.52485822448,27.1401,-1.5325,-2.8667,0.0075,-0.032472877,0.423982838,239.856288745,INS_SOLUTION_GOOD*dc6bdeea
#INSPVAA,ICOM1,0,82.1,FINESTEERING,2269,271160.840,00000000,033f,769;2269,271160.840000000,23.26334756417,113.52485800215,27.1402,-1.5340,-2.8679,0.0066,-0.033250275,0.424379714,239.855078740,INS_SOLUTION_GOOD*303ec2ad
#INSPVAA,ICOM1,0,82.1,FINESTEERING,2269,271160.848,00000000,0347,769;2269,271160.848000000,23.26334744934,113.52485777977,27.1403,-1.5343,-2.8685,0.0064,-0.033524263,0.421851417,239.852689143,INS_SOLUTION_GOOD*f5d2b55f
#INSPVAA,ICOM1,0,82.1,FINESTEERING,2269,271160.856,00000000,034f,769;2269,271160.856000000,23.26334733431,113.52485755719,27.1404,-1.5369,-2.8708,0.0044,-0.030752433,0.421673057,239.850226588,INS_SOLUTION_GOOD*6796dd61
#INSPVAA,ICOM1,0,82.1,FINESTEERING,2269,271160.864,00000000,0357,769;2269,271160.864000000,23.26334721918,113.52485733449,27.1405,-1.5389,-2.8727,0.0054,-0.029575218,0.426846968,239.848761109,INS_SOLUTION_GOOD*b591d65a
#INSPVAA,ICOM1,0,82.1,FINESTEERING,2269,271160.872,00000000,035f,769;2269,271160.872000000,23.26334710408,113.52485711179,27.1406,-1.5388,-2.8728,0.0008,-0.025232845,0.422749253,239.847392623,INS_SOLUTION_GOOD*002c8476
#INSPVAA,ICOM1,0,82.1,FINESTEERING,2269,271160.880,00000000,0367,769;2269,271160.880000000,23.26334698883,113.52485688885,27.1407,-1.5403,-2.8753,-0.0022,-0.026859645,0.428157381,239.846262477,INS_SOLUTION_GOOD*1a625bf4
#INSPVAA,ICOM1,0,82.1,FINESTEERING,2269,271160.888,00000000,036f,769;2269,271160.888000000,23.26334687345,113.52485666574,27.1407,-1.5425,-2.8778,-0.0010,-0.025192607,0.427089560,239.844576644,INS_SOLUTION_GOOD*32ea03b8
#INSPVAA,ICOM1,0,82.1,FINESTEERING,2269,271160.896,00000000,0377,769;2269,271160.896000000,23.26334675803,113.52485644254,27.1408,-1.5434,-2.8792,-0.0018,-0.020421923,0.431658779,239.843126958,INS_SOLUTION_GOOD*7aca807d
#INSPVAA,ICOM1,0,82.1,FINESTEERING,2269,271160.904,00000000,037f,769;2269,271160.904000000,23.26334664262,113.52485621928,27.1408,-1.5433,-2.8797,-0.0051,-0.021552671,0.434797091,239.841365461,INS_SOLUTION_GOOD*c421d9c0
#INSPVAA,ICOM1,0,82.1,FINESTEERING,2269,271160.912,00000000,0387,769;2269,271160.912000000,23.26334652701,113.52485599595,27.1408,-1.5458,-2.8803,-0.0063,-0.019598324,0.435090599,239.839557279,INS_SOLUTION_GOOD*d3425c1e
#INSPVAA,ICOM1,0,82.1,FINESTEERING,2269,271160.920,00000000,038f,769;2269,271160.920000000,23.26334641145,113.52485577232,27.1409,-1.5457,-2.8838,-0.0057,-0.016648201,0.437746892,239.838417956,INS_SOLUTION_GOOD*d890a4cd
#INSPVAA,ICOM1,0,82.1,FINESTEERING,2269,271160.928,00000000,0397,769;2269,271160.928000000,23.26334629585,113.52485554845,27.1409,-1.5460,-2.8874,-0.0060,-0.018296822,0.440320458,239.836247713,INS_SOLUTION_GOOD*9b1d07c6
#INSPVAA,ICOM1,0,82.1,FINESTEERING,2269,271160.936,00000000,039f,769;2269,271160.936000000,23.26334618004,113.52485532469,27.1409,-1.5488,-2.8866,-0.0100,-0.019016771,0.441302917,239.833860876,INS_SOLUTION_GOOD*b203aa2d
#INSPVAA,ICOM1,0,82.1,FINESTEERING,2269,271160.944,00000000,03a7,769;2269,271160.944000000,23.26334606424,113.52485510076,27.1408,-1.5495,-2.8877,-0.0129,-0.019596807,0.443139650,239.832553119,INS_SOLUTION_GOOD*63d61c00
#INSPVAA,ICOM1,0,82.1,FINESTEERING,2269,271160.952,00000000,03af,769;2269,271160.952000000,23.26334594837,113.52485487668,27.1408,-1.5503,-2.8896,-0.0126,-0.023122664,0.449055822,239.831773120,INS_SOLUTION_GOOD*198e27ad
#INSPVAA,ICOM1,0,82.1,FINESTEERING,2269,271160.960,00000000,03b7,769;2269,271160.960000000,23.26334583239,113.52485465249,27.1408,-1.5519,-2.8910,-0.0151,-0.024192008,0.449530039,239.830085387,INS_SOLUTION_GOOD*aacdc864
#INSPVAA,ICOM1,0,82.1,FINESTEERING,2269,271160.968,00000000,03bf,769;2269,271160.968000000,23.26334571632,113.52485442814,27.1408,-1.5534,-2.8930,-0.0123,-0.030962160,0.458236837,239.827775956,INS_SOLUTION_GOOD*635911dd
#INSPVAA,ICOM1,0,82.1,FINESTEERING,2269,271160.976,00000000,03c7,769;2269,271160.976000000,23.26334560027,113.52485420371,27.1407,-1.5534,-2.8942,-0.0154,-0.033939663,0.457791277,239.826519404,INS_SOLUTION_GOOD*253bcf2c
#INSPVAA,ICOM1,0,82.1,FINESTEERING,2269,271160.984,00000000,03cf,769;2269,271160.984000000,23.26334548397,113.52485397915,27.1407,-1.5563,-2.8957,-0.0135,-0.034885448,0.461708404,239.825321262,INS_SOLUTION_GOOD*69eeadf9
#INSPVAA,ICOM1,0,82.1,FINESTEERING,2269,271160.992,00000000,03d7,769;2269,271160.992000000,23.26334536761,113.52485375456,27.1406,-1.5581,-2.8961,-0.0123,-0.041225769,0.465273223,239.824152054,INS_SOLUTION_GOOD*1b504c2a
#INSPVAA,ICOM1,0,82.1,FINESTEERING,2269,271161.000,00000000,03df,769;2269,271161.000000000,23.26334525121,113.52485352974,27.1406,-1.5587,-2.8986,-0.0121,-0.046206930,0.466169289,239.822381876,INS_SOLUTION_GOOD*5e6ad29a
#INSPVAA,ICOM1,0,82.1,FINESTEERING,2269,271161.008,00000000,03e7,769;2269,271161.008000000,23.26334513859,113.52485330313,27.1405,-1.5596,-2.8994,-0.0144,-0.049677284,0.467407701,239.821493372,INS_SOLUTION_GOOD*836f5e35
#INSPVAA,ICOM1,0,82.1,FINESTEERING,2269,271161.016,00000000,0007,769;2269,271161.016000000,23.26334502589,113.52485307642,27.1404,-1.5607,-2.9003,-0.0100,-0.051889891,0.474513966,239.820645723,INS_SOLUTION_GOOD*41a84938
#INSPVAA,ICOM1,0,82.1,FINESTEERING,2269,271161.024,00000000,000f,769;2269,271161.024000000,23.26334491319,113.52485284962,27.1403,-1.5607,-2.9015,-0.0127,-0.052548895,0.474924408,239.819961897,INS_SOLUTION_GOOD*624a30a7
#INSPVAA,ICOM1,0,82.1,FINESTEERING,2269,271161.032,00000000,0017,769;2269,271161.032000000,23.26334480031,113.52485262267,27.1402,-1.5628,-2.9033,-0.0103,-0.058984101,0.480578402,239.818133932,INS_SOLUTION_GOOD*74ac07a2
#INSPVAA,ICOM1,0,82.1,FINESTEERING,2269,271161.040,00000000,001f,769;2269,271161.040000000,23.26334468743,113.52485239567,27.1401,-1.5634,-2.9041,-0.0086,-0.064639430,0.478829960,239.816786637,INS_SOLUTION_GOOD*2a1c709b
#INSPVAA,ICOM1,0,82.1,FINESTEERING,2269,271161.048,00000000,0027,769;2269,271161.048000000,23.26334457450,113.52485216856,27.1401,-1.5639,-2.9054,-0.0079,-0.068323300,0.483928480,239.815560212,INS_SOLUTION_GOOD*c917e24b
#INSPVAA,ICOM1,0,82.1,FINESTEERING,2269,271161.056,00000000,002f,769;2269,271161.056000000,23.26334446147,113.52485194131,27.1400,-1.5650,-2.9072,-0.0109,-0.066796642,0.481594411,239.814117259,INS_SOLUTION_GOOD*742ab301
#BESTPOSA,ICOM1,0,82.1,FINESTEERING,2269,271161.000,00000000,0001,769;SOL_COMPUTED,NARROW_INT,23.26334334000,113.52485120202,34.6437,-6.3552,WGS84,0.0119,0.0109,0.0227,"3973",1.000,0.051,56,25,25,25,00,00,30,37*87c01817
#INSPVAA,ICOM1,0,82.1,FINESTEERING,2269,271161.064,00000000,0037,769;2269,271161.064000000,23.26334434834,113.52485171398,27.1399,-1.5666,-2.9084,-0.0079,-0.067726369,0.485241460,239.813123965,INS_SOLUTION_GOOD*625076d4
#INSPVAA,ICOM1,0,82.1,FINESTEERING,2269,271161.072,00000000,003f,769;2269,271161.072000000,23.26334423534,113.52485148645,27.1399,-1.5651,-2.9108,-0.0075,-0.069591126,0.492084440,239.812003288,INS_SOLUTION_GOOD*01b59026
#INSPVAA,ICOM1,0,82.1,FINESTEERING,2269,271161.080,00000000,0047,769;2269,271161.080000000,23.26334412214,113.52485125893,27.1398,-1.5669,-2.9111,-0.0115,-0.073647278,0.490918109,239.809375149,INS_SOLUTION_GOOD*11c354af
#INSPVAA,ICOM1,0,82.1,FINESTEERING,2269,271161.088,00000000,004f,769;2269,271161.088000000,23.26334400882,113.52485103118,27.1397,-1.5691,-2.9135,-0.0083,-0.074158020,0.494284461,239.808684494,INS_SOLUTION_GOOD*d4fcb65c
#INSPVAA,ICOM1,0,82.1,FINESTEERING,2269,271161.096,00000000,0057,769;2269,271161.096000000,23.26334389558,113.52485080346,27.1396,-1.5685,-2.9136,-0.0074,-0.070126963,0.497729476,239.808191648,INS_SOLUTION_GOOD*e76b0792
#INSPVAA,ICOM1,0,82.1,FINESTEERING,2269,271161.104,00000000,005f,769;2269,271161.104000000,23.26334378222,113.52485057559,27.1396,-1.5694,-2.9149,-0.0090,-0.066692919,0.500478885,239.807691275,INS_SOLUTION_GOOD*1d3aa05d
#INSPVAA,ICOM1,0,82.1,FINESTEERING,2269,271161.112,00000000,0067,769;2269,271161.112000000,23.26334366901,113.52485034743,27.1395,-1.5677,-2.9187,-0.0092,-0.070136621,0.501379546,239.806119342,INS_SOLUTION_GOOD*5c412540
#INSPVAA,ICOM1,0,82.1,FINESTEERING,2269,271161.120,00000000,006f,769;2269,271161.120000000,23.26334355566,113.52485011920,27.1394,-1.5689,-2.9203,-0.0068,-0.068344983,0.503796539,239.803192133,INS_SOLUTION_GOOD*ba891179
#INSPVAA,ICOM1,0,82.1,FINESTEERING,2269,271161.128,00000000,0077,769;2269,271161.128000000,23.26334344234,113.52484989080,27.1394,-1.5689,-2.9223,-0.0062,-0.067824586,0.511389497,239.802039932,INS_SOLUTION_GOOD*9686e0a7
