#INSPVAA,ICOM1,0,81.6,FINESTEERING,2269,270881.752,00000000,02e7,769;2269,270881.752000000,23.26331082856,113.52486395662,27.2032,-1.7639,-3.2479,0.0034,-0.155271055,0.196354944,240.715883864,INS_SOLUTION_GOOD*914f6c8e
#INSPVAA,ICOM1,0,81.6,FINESTEERING,2269,270881.760,00000000,02ef,769;2269,270881.760000000,23.26331070044,113.52486370286,27.2032,-1.7648,-3.2439,-0.0002,-0.155241208,0.193799081,240.716144313,INS_SOLUTION_GOOD*9d696fe1
#INSPVAA,ICOM1,0,81.6,FINESTEERING,2269,270881.768,00000000,02f7,769;2269,270881.768000000,23.26331057228,113.52486344917,27.2033,-1.7660,-3.2421,0.0022,-0.157722816,0.195045389,240.717611867,INS_SOLUTION_GOOD*b5516762
#INSPVAA,ICOM1,0,81.6,FINESTEERING,2269,270881.776,00000000,02ff,769;2269,270881.776000000,23.26331044433,113.52486319568,27.2033,-1.7639,-3.2399,0.0015,-0.157410563,0.197408366,240.720228781,INS_SOLUTION_GOOD*055df060
#INSPVAA,ICOM1,0,81.6,FINESTEERING,2269,270881.784,00000000,0307,769;2269,270881.784000000,23.26331031647,113.52486294241,27.2032,-1.7618,-3.2372,-0.0043,-0.160123505,0.198098830,240.722202439,INS_SOLUTION_GOOD*db440585
#INSPVAA,ICOM1,0,81.6,FINESTEERING,2269,270881.792,00000000,030f,769;2269,270881.792000000,23.26331018885,113.52486268928,27.2032,-1.7585,-3.2351,-0.0047,-0.162415459,0.197252550,240.723320206,INS_SOLUTION_GOOD*a794f752
#INSPVAA,ICOM1,0,81.6,FINESTEERING,2269,270881.800,00000000,0317,769;2269,270881.800000000,23.26331006126,113.52486243605,27.2032,-1.7574,-3.2363,-0.0038,-0.166707278,0.202492201,240.723349694,INS_SOLUTION_GOOD*75e89d8f
#INSPVAA,ICOM1,0,81.6,FINESTEERING,2269,270881.808,00000000,031f,769;2269,270881.808000000,23.26330993359,113.52486218315,27.2031,-1.7587,-3.2333,-0.0058,-0.167270205,0.204521402,240.724602683,INS_SOLUTION_GOOD*7d3daf2f
#INSPVAA,ICOM1,0,81.6,FINESTEERING,2269,270881.816,00000000,0327,769;2269,270881.816000000,23.26330980602,113.52486193046,27.2030,-1.7583,-3.2300,-0.0108,-0.168006233,0.204362155,240.725342895,INS_SOLUTION_GOOD*250aebf0
#INSPVAA,ICOM1,0,81.6,FINESTEERING,2269,270881.824,00000000,032f,769;2269,270881.824000000,23.26330967871,113.52486167782,27.2030,-1.7548,-3.2288,-0.0100,-0.173300047,0.208879452,240.727639180,INS_SOLUTION_GOOD*2c234683
#INSPVAA,ICOM1,0,81.6,FINESTEERING,2269,270881.832,00000000,0337,769;2269,270881.832000000,23.26330955146,113.52486142520,27.2029,-1.7531,-3.2289,-0.0107,-0.170238109,0.208672213,240.728679511,INS_SOLUTION_GOOD*a860d0e7
#INSPVAA,ICOM1,0,81.6,FINESTEERING,2269,270881.840,00000000,033f,769;2269,270881.840000000,23.26330942436,113.52486117270,27.2028,-1.7511,-3.2278,-0.0111,-0.173171582,0.215066415,240.728900133,INS_SOLUTION_GOOD*333e63b7
#INSPVAA,ICOM1,0,81.6,FINESTEERING,2269,270881.848,00000000,0347,769;2269,270881.848000000,23.26330929723,113.52486092045,27.2027,-1.7513,-3.2247,-0.0127,-0.173654538,0.215492641,240.728796143,INS_SOLUTION_GOOD*0141591a
#INSPVAA,ICOM1,0,81.6,FINESTEERING,2269,270881.856,00000000,034f,769;2269,270881.856000000,23.26330917017,113.52486066827,27.2026,-1.7509,-3.2232,-0.0153,-0.175748995,0.217958562,240.729499071,INS_SOLUTION_GOOD*e1fe15c1
#INSPVAA,ICOM1,0,81.6,FINESTEERING,2269,270881.864,00000000,0357,769;2269,270881.864000000,23.26330904328,113.52486041617,27.2025,-1.7488,-3.2224,-0.0141,-0.178699145,0.219250143,240.730653855,INS_SOLUTION_GOOD*4abf74a8
#INSPVAA,ICOM1,0,81.6,FINESTEERING,2269,270881.872,00000000,035f,769;2269,270881.872000000,23.26330891650,113.52486016429,27.2024,-1.7470,-3.2198,-0.0155,-0.176408283,0.222177490,240.731359410,INS_SOLUTION_GOOD*be7dc268
#INSPVAA,ICOM1,0,81.6,FINESTEERING,2269,270881.880,00000000,0367,769;2269,270881.880000000,23.26330878984,113.52485991257,27.2022,-1.7453,-3.2175,-0.0182,-0.174780756,0.225411359,240.731252633,INS_SOLUTION_GOOD*1db4a41b
#INSPVAA,ICOM1,0,81.6,FINESTEERING,2269,270881.888,00000000,036f,769;2269,270881.888000000,23.26330866328,113.52485966091,27.2021,-1.7437,-3.2165,-0.0151,-0.176258001,0.231167350,240.731221539,INS_SOLUTION_GOOD*db130532
#INSPVAA,ICOM1,0,81.6,FINESTEERING,2269,270881.896,00000000,0377,769;2269,270881.896000000,23.26330853687,113.52485940940,27.2020,-1.7418,-3.2149,-0.0136,-0.173308169,0.234220508,240.731522596,INS_SOLUTION_GOOD*55113fea
#INSPVAA,ICOM1,0,81.6,FINESTEERING,2269,270881.904,00000000,037f,769;2269,270881.904000000,23.26330841052,113.52485915805,27.2019,-1.7408,-3.2129,-0.0147,-0.174681582,0.237779724,240.731177671,INS_SOLUTION_GOOD*7ce82ed9
#INSPVAA,ICOM1,0,81.6,FINESTEERING,2269,270881.912,00000000,0387,769;2269,270881.912000000,23.26330828428,113.52485890680,27.2018,-1.7396,-3.2115,-0.0122,-0.173398276,0.237595845,240.731130443,INS_SOLUTION_GOOD*e9d1add6
#INSPVAA,ICOM1,0,81.6,FINESTEERING,2269,270881.920,00000000,038f,769;2269,270881.920000000,23.26330815809,113.52485865557,27.2017,-1.7388,-3.2113,-0.0108,-0.169662062,0.240019529,240.730989577,INS_SOLUTION_GOOD*a33cde1f
#INSPVAA,ICOM1,0,81.6,FINESTEERING,2269,270881.928,00000000,0397,769;2269,270881.928000000,23.26330803199,113.52485840459,27.2016,-1.7377,-3.2086,-0.0099,-0.166535803,0.241739160,240.732163972,INS_SOLUTION_GOOD*01306863
#INSPVAA,ICOM1,0,81.6,FINESTEERING,2269,270881.936,00000000,039f,769;2269,270881.936000000,23.26330790609,113.52485815356,27.2015,-1.7352,-3.2087,-0.0124,-0.165227398,0.243330623,240.732561461,INS_SOLUTION_GOOD*1aabd5a9
#INSPVAA,ICOM1,0,81.6,FINESTEERING,2269,270881.944,00000000,03a7,769;2269,270881.944000000,23.26330778023,113.52485790266,27.2014,-1.7342,-3.2075,-0.0103,-0.164231317,0.248904398,240.731346246,INS_SOLUTION_GOOD*bcabac41
#INSPVAA,ICOM1,0,81.6,FINESTEERING,2269,270881.952,00000000,03af,769;2269,270881.952000000,23.26330765449,113.52485765187,27.2013,-1.7327,-3.2060,-0.0098,-0.162838655,0.252456917,240.731212184,INS_SOLUTION_GOOD*10e7062b
#INSPVAA,ICOM1,0,81.6,FINESTEERING,2269,270881.960,00000000,03b7,769;2269,270881.960000000,23.26330752881,113.52485740121,27.2012,-1.7318,-3.2042,-0.0093,-0.158573759,0.253409626,240.731770228,INS_SOLUTION_GOOD*92294b96
#INSPVAA,ICOM1,0,81.6,FINESTEERING,2269,270881.968,00000000,03bf,769;2269,270881.968000000,23.26330740320,113.52485715054,27.2012,-1.7311,-3.2043,-0.0070,-0.157665631,0.256301732,240.731489792,INS_SOLUTION_GOOD*9d1c459a
#INSPVAA,ICOM1,0,81.6,FINESTEERING,2269,270881.976,00000000,03c7,769;2269,270881.976000000,23.26330727777,113.52485690007,27.2011,-1.7286,-3.2021,-0.0045,-0.156839955,0.256696911,240.731839144,INS_SOLUTION_GOOD*69cddb07
#INSPVAA,ICOM1,0,81.6,FINESTEERING,2269,270881.984,00000000,03cf,769;2269,270881.984000000,23.26330715249,113.52485664980,27.2011,-1.7264,-3.1993,-0.0068,-0.154296039,0.257932353,240.731864082,INS_SOLUTION_GOOD*62c1540c
#INSPVAA,ICOM1,0,81.6,FINESTEERING,2269,270881.992,00000000,03d7,769;2269,270881.992000000,23.26330702733,113.52485639938,27.2010,-1.7246,-3.2006,-0.0039,-0.154862885,0.261246414,240.731458660,INS_SOLUTION_GOOD*87f69f93
#INSPVAA,ICOM1,0,81.6,FINESTEERING,2269,270882.000,00000000,03df,769;2269,270882.000000000,23.26330690218,113.52485614916,27.2010,-1.7242,-3.1990,-0.0012,-0.150214507,0.262176269,240.731155648,INS_SOLUTION_GOOD*e4b403eb
#INSPVAA,ICOM1,0,81.6,FINESTEERING,2269,270882.008,00000000,03e7,769;2269,270882.008000000,23.26330677765,113.52485589922,27.2010,-1.7234,-3.1965,-0.0014,-0.149936594,0.265988392,240.731028355,INS_SOLUTION_GOOD*19343710
#INSPVAA,ICOM1,0,81.6,FINESTEERING,2269,270882.016,00000000,0007,769;2269,270882.016000000,23.26330665324,113.52485564929,27.2010,-1.7217,-3.1958,-0.0020,-0.150638693,0.262789849,240.731046830,INS_SOLUTION_GOOD*a47f56a7
#INSPVAA,ICOM1,0,81.6,FINESTEERING,2269,270882.024,00000000,000f,769;2269,270882.024000000,23.26330652883,113.52485539924,27.2010,-1.7216,-3.1975,0.0019,-0.148269019,0.264370671,240.731002432,INS_SOLUTION_GOOD*381ccd19
#INSPVAA,ICOM1,0,81.6,FINESTEERING,2269,270882.032,00000000,0017,769;2269,270882.032000000,23.26330640454,113.52485514956,27.2010,-1.7203,-3.1937,0.0017,-0.145565093,0.266839445,240.730773916,INS_SOLUTION_GOOD*86e9da18
#INSPVAA,ICOM1,0,81.6,FINESTEERING,2269,270882.040,00000000,001f,769;2269,270882.040000000,23.26330628031,113.52485490000,27.2010,-1.7192,-3.1912,-0.0024,-0.142332708,0.264670101,240.730186473,INS_SOLUTION_GOOD*e7d6f76d
#INSPVAA,ICOM1,0,81.6,FINESTEERING,2269,270882.048,00000000,0027,769;2269,270882.048000000,23.26330615602,113.52485465022,27.2010,-1.7200,-3.1935,0.0006,-0.146781572,0.268684557,240.730016724,INS_SOLUTION_GOOD*614a4b08
#BESTPOSA,ICOM1,0,81.6,FINESTEERING,2269,270882.000,00000000,0001,769;SOL_COMPUTED,NARROW_INT,23.26330539654,113.52485351858,34.7087,-6.3551,WGS84,0.0161,0.0150,0.0275,"3973",1.000,0.049,52,25,25,25,00,00,30,37*f50270cf
#INSPVAA,ICOM1,0,81.6,FINESTEERING,2269,270882.056,00000000,002f,769;2269,270882.056000000,23.26330603164,113.52485440073,27.2011,-1.7217,-3.1912,0.0069,-0.138640769,0.269938953,240.730168679,INS_SOLUTION_GOOD*1175ab29
#INSPVAA,ICOM1,0,81.6,FINESTEERING,2269,270882.064,00000000,0037,769;2269,270882.064000000,23.26330590746,113.52485415133,27.2010,-1.7196,-3.1894,-0.0032,-0.135261506,0.267686692,240.730920274,INS_SOLUTION_GOOD*6f804cb3
#INSPVAA,ICOM1,0,81.6,FINESTEERING,2269,270882.072,00000000,003f,769;2269,270882.072000000,23.26330578325,113.52485390194,27.2010,-1.7192,-3.1891,0.0007,-0.135558067,0.267009361,240.730262296,INS_SOLUTION_GOOD*104ee90e
#INSPVAA,ICOM1,0,81.6,FINESTEERING,2269,270882.080,00000000,0047,769;2269,270882.080000000,23.26330565902,113.52485365264,27.2010,-1.7194,-3.1881,0.0005,-0.133925075,0.267736826,240.729780768,INS_SOLUTION_GOOD*f088efd1
#INSPVAA,ICOM1,0,81.6,FINESTEERING,2269,270882.088,00000000,004f,769;2269,270882.088000000,23.26330553492,113.52485340346,27.2010,-1.7181,-3.1866,-0.0027,-0.129199325,0.271954724,240.729557707,INS_SOLUTION_GOOD*026035ef
#INSPVAA,ICOM1,0,81.6,FINESTEERING,2269,270882.096,00000000,0057,769;2269,270882.096000000,23.26330541066,113.52485315450,27.2010,-1.7196,-3.1838,-0.0015,-0.124308115,0.272285184,240.729665154,INS_SOLUTION_GOOD*669d4439
#INSPVAA,ICOM1,0,81.6,FINESTEERING,2269,270882.104,00000000,005f,769;2269,270882.104000000,23.26330528653,113.52485290540,27.2010,-1.7186,-3.1849,-0.0015,-0.125936102,0.275979188,240.730315479,INS_SOLUTION_GOOD*aefb9107
#INSPVAA,ICOM1,0,81.6,FINESTEERING,2269,270882.112,00000000,0067,769;2269,270882.112000000,23.26330516240,113.52485265643,27.2010,-1.7183,-3.1842,-0.0041,-0.124033482,0.273743573,240.729328338,INS_SOLUTION_GOOD*50b3ac38
#INSPVAA,ICOM1,0,81.6,FINESTEERING,2269,270882.120,00000000,006f,769;2269,270882.120000000,23.26330503821,113.52485240752,27.2009,-1.7191,-3.1833,-0.0031,-0.123693400,0.272786202,240.727978847,INS_SOLUTION_GOOD*b63ec110
#INSPVAA,ICOM1,0,81.6,FINESTEERING,2269,270882.128,00000000,0077,769;2269,270882.128000000,23.26330491408,113.52485215863,27.2009,-1.7185,-3.1830,-0.0062,-0.120697782,0.274390124,240.728410775,INS_SOLUTION_GOOD*c9e2be78
#INSPVAA,ICOM1,0,81.6,FINESTEERING,2269,270882.136,00000000,007f,769;2269,270882.136000000,23.26330478997,113.52485190995,27.2008,-1.7181,-3.1806,-0.0073,-0.121420476,0.277926786,240.727445698,INS_SOLUTION_GOOD*09101ed2
#INSPVAA,ICOM1,0,81.6,FINESTEERING,2269,270882.144,00000000,0087,769;2269,270882.144000000,23.26330466590,113.52485166124,27.2008,-1.7174,-3.1803,-0.0067,-0.122601488,0.279583498,240.726718980,INS_SOLUTION_GOOD*3c890c2b
#INSPVAA,ICOM1,0,81.6,FINESTEERING,2269,270882.152,00000000,008f,769;2269,270882.152000000,23.26330454187,113.52485141249,27.2007,-1.7169,-3.1810,-0.0062,-0.121826298,0.282417953,240.725514192,INS_SOLUTION_GOOD*50db0f44
#INSPVAA,ICOM1,0,81.6,FINESTEERING,2269,270882.160,00000000,0097,769;2269,270882.160000000,23.26330441777,113.52485116374,27.2007,-1.7176,-3.1815,-0.0076,-0.120831345,0.281363030,240.723570040,INS_SOLUTION_GOOD*6459b7dc
#INSPVAA,ICOM1,0,81.6,FINESTEERING,2269,270882.168,00000000,009f,769;2269,270882.168000000,23.26330429366,113.52485091510,27.2006,-1.7181,-3.1804,-0.0063,-0.121406156,0.282319223,240.722863312,INS_SOLUTION_GOOD*ad868807
#INSPVAA,ICOM1,0,81.6,FINESTEERING,2269,270882.176,00000000,00a7,769;2269,270882.176000000,23.26330416965,113.52485066656,27.2005,-1.7169,-3.1788,-0.0115,-0.122297710,0.282603786,240.721657242,INS_SOLUTION_GOOD*9509e257
#INSPVAA,ICOM1,0,81.6,FINESTEERING,2269,270882.184,00000000,00af,769;2269,270882.184000000,23.26330404558,113.52485041807,27.2005,-1.7174,-3.1778,-0.0091,-0.126942415,0.287413469,240.719160278,INS_SOLUTION_GOOD*6c52ccbc
#INSPVAA,ICOM1,0,81.6,FINESTEERING,2269,270882.192,00000000,00b7,769;2269,270882.192000000,23.26330392155,113.52485016973,27.2004,-1.7171,-3.1760,-0.0089,-0.126570563,0.285554268,240.717429683,INS_SOLUTION_GOOD*d3fff152
#INSPVAA,ICOM1,0,81.6,FINESTEERING,2269,270882.200,00000000,00bf,769;2269,270882.200000000,23.26330379753,113.52484992136,27.2004,-1.7168,-3.1759,-0.0069,-0.129430510,0.293274341,240.715635713,INS_SOLUTION_GOOD*46ec3abf
#INSPVAA,ICOM1,0,81.6,FINESTEERING,2269,270882.208,00000000,00c7,769;2269,270882.208000000,23.26330367340,113.52484967315,27.2003,-1.7182,-3.1743,-0.0065,-0.127036988,0.292645803,240.713247000,INS_SOLUTION_GOOD*8ee2839b
#INSPVAA,ICOM1,0,81.6,FINESTEERING,2269,270882.216,00000000,00cf,769;2269,270882.216000000,23.26330354935,113.52484942493,27.2002,-1.7176,-3.1742,-0.0059,-0.130272558,0.290456740,240.711725283,INS_SOLUTION_GOOD*910d9cd1
#INSPVAA,ICOM1,0,81.6,FINESTEERING,2269,270882.224,00000000,00d7,769;2269,270882.224000000,23.26330342537,113.52484917680,27.2002,-1.7163,-3.1734,-0.0054,-0.133680109,0.291890540,240.709574832,INS_SOLUTION_GOOD*2d5d62ab
#INSPVAA,ICOM1,0,81.6,FINESTEERING,2269,270882.232,00000000,00df,769;2269,270882.232000000,23.26330330127,113.52484892884,27.2002,-1.7177,-3.1711,-0.0042,-0.136349053,0.293255367,240.706451485,INS_SOLUTION_GOOD*23aa9035
#INSPVAA,ICOM1,0,81.6,FINESTEERING,2269,270882.240,00000000,00e7,769;2269,270882.240000000,23.26330317712,113.52484868091,27.2001,-1.7188,-3.1704,-0.0019,-0.137808518,0.296137019,240.704181143,INS_SOLUTION_GOOD*1fc5d18b
#INSPVAA,ICOM1,0,81.6,FINESTEERING,2269,270882.248,00000000,00ef,769;2269,270882.248000000,23.26330305304,113.52484843311,27.2001,-1.7181,-3.1690,-0.0006,-0.138537836,0.297947897,240.702087662,INS_SOLUTION_GOOD*c6a7fa73
#INSPVAA,ICOM1,0,81.6,FINESTEERING,2269,270882.256,00000000,00f7,769;2269,270882.256000000,23.26330292882,113.52484818533,27.2001,-1.7195,-3.1685,0.0005,-0.141087631,0.295107925,240.699690803,INS_SOLUTION_GOOD*134e9de0
#INSPVAA,ICOM1,0,81.6,FINESTEERING,2269,270882.264,00000000,00ff,769;2269,270882.264000000,23.26330280466,113.52484793745,27.2002,-1.7192,-3.1699,0.0026,-0.143447676,0.293839581,240.697223104,INS_SOLUTION_GOOD*362baf82
#INSPVAA,ICOM1,0,81.6,FINESTEERING,2269,270882.272,00000000,0107,769;2269,270882.272000000,23.26330268051,113.52484768969,27.2001,-1.7188,-3.1690,0.0005,-0.146876566,0.293433941,240.694332811,INS_SOLUTION_GOOD*ac4504d6
#INSPVAA,ICOM1,0,81.6,FINESTEERING,2269,270882.280,00000000,010f,769;2269,270882.280000000,23.26330255629,113.52484744220,27.2002,-1.7196,-3.1655,0.0001,-0.148034163,0.293084691,240.691055140,INS_SOLUTION_GOOD*261590c0
#INSPVAA,ICOM1,0,81.6,FINESTEERING,2269,270882.288,00000000,0117,769;2269,270882.288000000,23.26330243066,113.52484719400,27.2004,-1.7189,-3.1649,0.0033,-0.153272481,0.297528280,240.688730230,INS_SOLUTION_GOOD*326d2322
#INSPVAA,ICOM1,0,81.6,FINESTEERING,2269,270882.296,00000000,011f,769;2269,270882.296000000,23.26330230582,113.52484694623,27.2006,-1.7185,-3.1643,0.0067,-0.154442794,0.298153308,240.686561599,INS_SOLUTION_GOOD*f83e4999
#INSPVAA,ICOM1,0,81.6,FINESTEERING,2269,270882.304,00000000,0127,769;2269,270882.304000000,23.26330218095,113.52484669852,27.2007,-1.7189,-3.1638,0.0076,-0.155904904,0.296217568,240.682686903,INS_SOLUTION_GOOD*49010027
#INSPVAA,ICOM1,0,81.6,FINESTEERING,2269,270882.312,00000000,012f,769;2269,270882.312000000,23.26330205627,113.52484645077,27.2009,-1.7165,-3.1643,0.0100,-0.164237779,0.294250327,240.680857079,INS_SOLUTION_GOOD*827eea66
#INSPVAA,ICOM1,0,81.6,FINESTEERING,2269,270882.320,00000000,0137,769;2269,270882.320000000,23.26330193151,113.52484620312,27.2011,-1.7169,-3.1634,0.0085,-0.165961800,0.289075271,240.677595168,INS_SOLUTION_GOOD*c1f9666a
#INSPVAA,ICOM1,0,81.6,FINESTEERING,2269,270882.328,00000000,013f,769;2269,270882.328000000,23.26330180678,113.52484595559,27.2012,-1.7170,-3.1617,0.0088,-0.170668372,0.288133176,240.674685598,INS_SOLUTION_GOOD*a27a0988
#INSPVAA,ICOM1,0,81.6,FINESTEERING,2269,270882.336,00000000,0147,769;2269,270882.336000000,23.26330168206,113.52484570817,27.2014,-1.7169,-3.1600,0.0136,-0.173703994,0.291907639,240.671528783,INS_SOLUTION_GOOD*0568bd71
#INSPVAA,ICOM1,0,81.6,FINESTEERING,2269,270882.344,00000000,014f,769;2269,270882.344000000,23.26330155740,113.52484546091,27.2016,-1.7162,-3.1579,0.0125,-0.174205663,0.292747027,240.668868317,INS_SOLUTION_GOOD*324ee76b
#INSPVAA,ICOM1,0,81.6,FINESTEERING,2269,270882.352,00000000,0157,769;2269,270882.352000000,23.26330143279,113.52484521352,27.2019,-1.7154,-3.1591,0.0148,-0.183988632,0.287344698,240.665310044,INS_SOLUTION_GOOD*d693c8da
#INSPVAA,ICOM1,0,81.6,FINESTEERING,2269,270882.360,00000000,015f,769;2269,270882.360000000,23.26330130812,113.52484496619,27.2021,-1.7161,-3.1592,0.0203,-0.183847204,0.286403351,240.662367525,INS_SOLUTION_GOOD*11b06b76
#INSPVAA,ICOM1,0,81.6,FINESTEERING,2269,270882.368,00000000,0167,769;2269,270882.368000000,23.26330118348,113.52484471894,27.2023,-1.7160,-3.1584,0.0143,-0.182498408,0.279762671,240.659433426,INS_SOLUTION_GOOD*b7eefbb5
#INSPVAA,ICOM1,0,81.6,FINESTEERING,2269,270882.376,00000000,016f,769;2269,270882.376000000,23.26330105882,113.52484447172,27.2026,-1.7164,-3.1577,0.0166,-0.190149247,0.278553740,240.655948364,INS_SOLUTION_GOOD*71d22356
#INSPVAA,ICOM1,0,81.6,FINESTEERING,2269,270882.384,00000000,0177,769;2269,270882.384000000,23.26330093422,113.52484422465,27.2028,-1.7156,-3.1559,0.0146,-0.192419040,0.277840072,240.653662802,INS_SOLUTION_GOOD*e1d2f3d3
#INSPVAA,ICOM1,0,81.6,FINESTEERING,2269,270882.392,00000000,017f,769;2269,270882.392000000,23.26330080970,113.52484397759,27.2030,-1.7144,-3.1554,0.0133,-0.191898081,0.279424138,240.650176632,INS_SOLUTION_GOOD*83783ba8
#INSPVAA,ICOM1,0,81.6,FINESTEERING,2269,270882.400,00000000,0187,769;2269,270882.400000000,23.26330068514,113.52484373052,27.2032,-1.7147,-3.1556,0.0136,-0.192255602,0.276421560,240.646695641,INS_SOLUTION_GOOD*797f7e16
#INSPVAA,ICOM1,0,81.6,FINESTEERING,2269,270882.408,00000000,018f,769;2269,270882.408000000,23.26330056062,113.52484348344,27.2034,-1.7143,-3.1561,0.0130,-0.195539830,0.277252316,240.644040131,INS_SOLUTION_GOOD*9b93f8c1
#INSPVAA,ICOM1,0,81.6,FINESTEERING,2269,270882.416,00000000,0197,769;2269,270882.416000000,23.26330043612,113.52484323645,27.2036,-1.7142,-3.1551,0.0094,-0.195984017,0.273801527,240.640499875,INS_SOLUTION_GOOD*73db737c
#INSPVAA,ICOM1,0,81.6,FINESTEERING,2269,270882.424,00000000,019f,769;2269,270882.424000000,23.26330031172,113.52484298936,27.2038,-1.7128,-3.1561,0.0070,-0.199981125,0.271983178,240.636752834,INS_SOLUTION_GOOD*1a326171
#INSPVAA,ICOM1,0,81.6,FINESTEERING,2269,270882.432,00000000,01a7,769;2269,270882.432000000,23.26330018737,113.52484274232,27.2039,-1.7119,-3.1559,0.0059,-0.199073521,0.274257720,240.632668259,INS_SOLUTION_GOOD*6ba732c0
#INSPVAA,ICOM1,0,81.6,FINESTEERING,2269,270882.440,00000000,01af,769;2269,270882.440000000,23.26330006301,113.52484249543,27.2041,-1.7119,-3.1540,0.0027,-0.197099782,0.275484206,240.628563587,INS_SOLUTION_GOOD*5799246a
#INSPVAA,ICOM1,0,81.6,FINESTEERING,2269,270882.448,00000000,01b7,769;2269,270882.448000000,23.26329993867,113.52484224840,27.2042,-1.7119,-3.1551,0.0029,-0.201474261,0.278014561,240.625505353,INS_SOLUTION_GOOD*12f63382
#INSPVAA,ICOM1,0,81.6,FINESTEERING,2269,270882.456,00000000,01bf,769;2269,270882.456000000,23.26329981434,113.52484200140,27.2043,-1.7119,-3.1553,0.0013,-0.199510485,0.278484879,240.621762520,INS_SOLUTION_GOOD*bedfbcee
#INSPVAA,ICOM1,0,81.6,FINESTEERING,2269,270882.464,00000000,01c7,769;2269,270882.464000000,23.26329969005,113.52484175437,27.2044,-1.7116,-3.1557,-0.0011,-0.201411980,0.279808651,240.617654724,INS_SOLUTION_GOOD*c30c698d
#INSPVAA,ICOM1,0,81.6,FINESTEERING,2269,270882.472,00000000,01cf,769;2269,270882.472000000,23.26329956582,113.52484150729,27.2045,-1.7106,-3.1564,-0.0016,-0.202480217,0.281271320,240.614447846,INS_SOLUTION_GOOD*56ea7183
#INSPVAA,ICOM1,0,81.6,FINESTEERING,2269,270882.480,00000000,01d7,769;2269,270882.480000000,23.26329944165,113.52484126027,27.2046,-1.7097,-3.1558,-0.0046,-0.202272131,0.282593596,240.610549708,INS_SOLUTION_GOOD*acf4ab94
#INSPVAA,ICOM1,0,81.6,FINESTEERING,2269,270882.488,00000000,01df,769;2269,270882.488000000,23.26329931746,113.52484101335,27.2047,-1.7099,-3.1543,-0.0013,-0.205934906,0.288768597,240.605691175,INS_SOLUTION_GOOD*994c4326
#INSPVAA,ICOM1,0,81.6,FINESTEERING,2269,270882.496,00000000,01e7,769;2269,270882.496000000,23.26329919337,113.52484076645,27.2048,-1.7087,-3.1538,-0.0026,-0.200764476,0.289496461,240.603256105,INS_SOLUTION_GOOD*733e3714
#INSPVAA,ICOM1,0,81.6,FINESTEERING,2269,270882.504,00000000,01ef,769;2269,270882.504000000,23.26329906939,113.52484051955,27.2049,-1.7070,-3.1536,-0.0027,-0.204608649,0.294115801,240.598854562,INS_SOLUTION_GOOD*5f487bf5
#INSPVAA,ICOM1,0,81.6,FINESTEERING,2269,270882.512,00000000,01f7,769;2269,270882.512000000,23.26329894536,113.52484027265,27.2050,-1.7075,-3.1538,-0.0018,-0.206787836,0.291790129,240.594495985,INS_SOLUTION_GOOD*0d71408b
#INSPVAA,ICOM1,0,81.6,FINESTEERING,2269,270882.520,00000000,01ff,769;2269,270882.520000000,23.26329882139,113.52484002587,27.2051,-1.7072,-3.1526,0.0007,-0.206230719,0.297253399,240.590290154,INS_SOLUTION_GOOD*bc248016
#INSPVAA,ICOM1,0,81.6,FINESTEERING,2269,270882.528,00000000,0207,769;2269,270882.528000000,23.26329869762,113.52483977913,27.2052,-1.7044,-3.1517,0.0009,-0.204389112,0.297651114,240.587060603,INS_SOLUTION_GOOD*9b668d0c
#INSPVAA,ICOM1,0,81.6,FINESTEERING,2269,270882.536,00000000,020f,769;2269,270882.536000000,23.26329857377,113.52483953246,27.2053,-1.7048,-3.1508,0.0005,-0.206930006,0.299869711,240.583055074,INS_SOLUTION_GOOD*a9cb2805
#INSPVAA,ICOM1,0,81.6,FINESTEERING,2269,270882.544,00000000,0217,769;2269,270882.544000000,23.26329845004,113.52483928581,27.2054,-1.7038,-3.1503,0.0051,-0.207471724,0.300889595,240.577985476,INS_SOLUTION_GOOD*e464fa7e
#INSPVAA,ICOM1,0,81.6,FINESTEERING,2269,270882.552,00000000,021f,769;2269,270882.552000000,23.26329832634,113.52483903930,27.2056,-1.7033,-3.1489,0.0051,-0.205632045,0.301340388,240.574159439,INS_SOLUTION_GOOD*41532b35
#INSPVAA,ICOM1,0,81.6,FINESTEERING,2269,270882.560,00000000,0227,769;2269,270882.560000000,23.26329820270,113.52483879279,27.2057,-1.7025,-3.1486,0.0038,-0.207259252,0.303537495,240.570581461,INS_SOLUTION_GOOD*e81ac41c
#INSPVAA,ICOM1,0,81.6,FINESTEERING,2269,270882.568,00000000,022f,769;2269,270882.568000000,23.26329807908,113.52483854638,27.2058,-1.7022,-3.1475,0.0081,-0.204498796,0.305217093,240.566895600,INS_SOLUTION_GOOD*a62f7daa
#INSPVAA,ICOM1,0,81.6,FINESTEERING,2269,270882.576,00000000,0237,769;2269,270882.576000000,23.26329795560,113.52483829999,27.2060,-1.7006,-3.1472,0.0061,-0.206084080,0.304685674,240.562895159,INS_SOLUTION_GOOD*63518693
#INSPVAA,ICOM1,0,81.6,FINESTEERING,2269,270882.584,00000000,023f,769;2269,270882.584000000,23.26329783202,113.52483805358,27.2062,-1.7015,-3.1475,0.0097,-0.205384177,0.305843660,240.558881279,INS_SOLUTION_GOOD*51ddd4cb
#INSPVAA,ICOM1,0,81.6,FINESTEERING,2269,270882.592,00000000,0247,769;2269,270882.592000000,23.26329770843,113.52483780738,27.2064,-1.7022,-3.1452,0.0116,-0.201455703,0.303156797,240.555000797,INS_SOLUTION_GOOD*143a3973
#INSPVAA,ICOM1,0,81.6,FINESTEERING,2269,270882.600,00000000,024f,769;2269,270882.600000000,23.26329758492,113.52483756120,27.2065,-1.7014,-3.1444,0.0069,-0.200715661,0.304754532,240.552377544,INS_SOLUTION_GOOD*a9c9b2e8
#INSPVAA,ICOM1,0,81.6,FINESTEERING,2269,270882.608,00000000,0257,769;2269,270882.608000000,23.26329746132,113.52483731516,27.2067,-1.7023,-3.1426,0.0047,-0.198415544,0.301966578,240.548396628,INS_SOLUTION_GOOD*1ee2700f
#INSPVAA,ICOM1,0,81.6,FINESTEERING,2269,270882.616,00000000,025f,769;2269,270882.616000000,23.26329733785,113.52483706897,27.2068,-1.7009,-3.1443,0.0071,-0.198625394,0.303260950,240.545122750,INS_SOLUTION_GOOD*69269bf3
#INSPVAA,ICOM1,0,81.6,FINESTEERING,2269,270882.624,00000000,0267,769;2269,270882.624000000,23.26329721429,113.52483682300,27.2070,-1.7016,-3.1424,0.0072,-0.192652572,0.312761826,240.541852781,INS_SOLUTION_GOOD*5814c923
#INSPVAA,ICOM1,0,81.6,FINESTEERING,2269,270882.632,00000000,026f,769;2269,270882.632000000,23.26329709073,113.52483657726,27.2071,-1.7020,-3.1390,0.0012,-0.184147079,0.307777784,240.537989935,INS_SOLUTION_GOOD*e739985f
#INSPVAA,ICOM1,0,81.6,FINESTEERING,2269,270882.640,00000000,0277,769;2269,270882.640000000,23.26329696716,113.52483633137,27.2073,-1.7023,-3.1401,0.0065,-0.187709722,0.311787127,240.535364695,INS_SOLUTION_GOOD*15c39d4f
#INSPVAA,ICOM1,0,81.6,FINESTEERING,2269,270882.648,00000000,027f,769;2269,270882.648000000,23.26329684354,113.52483608566,27.2074,-1.7030,-3.1388,0.0051,-0.181489523,0.311537984,240.532925806,INS_SOLUTION_GOOD*d14f0e3e
#INSPVAA,ICOM1,0,81.6,FINESTEERING,2269,270882.656,00000000,0287,769;2269,270882.656000000,23.26329672014,113.52483584001,27.2075,-1.7003,-3.1378,0.0022,-0.178197070,0.312205998,240.530452087,INS_SOLUTION_GOOD*a21b0e01
#INSPVAA,ICOM1,0,81.6,FINESTEERING,2269,270882.664,00000000,028f,769;2269,270882.664000000,23.26329659664,113.52483559453,27.2076,-1.7006,-3.1357,0.0019,-0.175065488,0.315181855,240.527702777,INS_SOLUTION_GOOD*90cb01a3
#INSPVAA,ICOM1,0,81.6,FINESTEERING,2269,270882.672,00000000,0297,769;2269,270882.672000000,23.26329647326,113.52483534908,27.2078,-1.6995,-3.1349,0.0030,-0.173787750,0.321950834,240.525336020,INS_SOLUTION_GOOD*8054615f
#INSPVAA,ICOM1,0,81.6,FINESTEERING,2269,270882.680,00000000,029f,769;2269,270882.680000000,23.26329634982,113.52483510365,27.2079,-1.7002,-3.1348,0.0060,-0.170658358,0.321073654,240.522249416,INS_SOLUTION_GOOD*9d5a746d
#INSPVAA,ICOM1,0,81.6,FINESTEERING,2269,270882.688,00000000,02a7,769;2269,270882.688000000,23.26329622638,113.52483485827,27.2081,-1.7004,-3.1344,0.0079,-0.170818908,0.322651295,240.519707942,INS_SOLUTION_GOOD*4d53648f
#INSPVAA,ICOM1,0,81.6,FINESTEERING,2269,270882.696,00000000,02af,769;2269,270882.696000000,23.26329610298,113.52483461294,27.2082,-1.7001,-3.1339,0.0078,-0.170581150,0.323045835,240.517224682,INS_SOLUTION_GOOD*c6532cc8
#INSPVAA,ICOM1,0,81.6,FINESTEERING,2269,270882.704,00000000,02b7,769;2269,270882.704000000,23.26329597951,113.52483436777,27.2084,-1.7010,-3.1320,0.0057,-0.162577842,0.318846835,240.515088496,INS_SOLUTION_GOOD*ec4d2f3d
#INSPVAA,ICOM1,0,81.6,FINESTEERING,2269,270882.712,00000000,02bf,769;2269,270882.712000000,23.26329585628,113.52483412265,27.2086,-1.6980,-3.1309,0.0091,-0.168046865,0.320219654,240.512472025,INS_SOLUTION_GOOD*55bca93e
#INSPVAA,ICOM1,0,81.6,FINESTEERING,2269,270882.720,00000000,02c7,769;2269,270882.720000000,23.26329573307,113.52483387763,27.2087,-1.6969,-3.1297,0.0095,-0.170516247,0.322866281,240.508780823,INS_SOLUTION_GOOD*2c3eebb0
#INSPVAA,ICOM1,0,81.6,FINESTEERING,2269,270882.728,00000000,02cf,769;2269,270882.728000000,23.26329560976,113.52483363264,27.2089,-1.6983,-3.1292,0.0084,-0.167371128,0.321247758,240.505705732,INS_SOLUTION_GOOD*ee7fbad6
#INSPVAA,ICOM1,0,81.6,FINESTEERING,2269,270882.736,00000000,02d7,769;2269,270882.736000000,23.26329548653,113.52483338777,27.2091,-1.6978,-3.1279,0.0131,-0.169049757,0.320717776,240.502396901,INS_SOLUTION_GOOD*50605738
#INSPVAA,ICOM1,0,81.6,FINESTEERING,2269,270882.744,00000000,02df,769;2269,270882.744000000,23.26329536328,113.52483314326,27.2093,-1.6980,-3.1234,0.0126,-0.164021167,0.320079075,240.500157936,INS_SOLUTION_GOOD*3ee1c47c
#INSPVAA,ICOM1,0,81.6,FINESTEERING,2269,270882.752,00000000,02e7,769;2269,270882.752000000,23.26329524012,113.52483289878,27.2095,-1.6969,-3.1219,0.0098,-0.166170717,0.315084841,240.497922431,INS_SOLUTION_GOOD*5f70a391
#INSPVAA,ICOM1,0,81.6,FINESTEERING,2269,270882.760,00000000,02ef,769;2269,270882.760000000,23.26329511714,113.52483265450,27.2097,-1.6943,-3.1198,0.0126,-0.171465553,0.310938309,240.494963117,INS_SOLUTION_GOOD*9dc8716d
#INSPVAA,ICOM1,0,81.6,FINESTEERING,2269,270882.768,00000000,02f7,769;2269,270882.768000000,23.26329499411,113.52483241059,27.2099,-1.6943,-3.1152,0.0134,-0.165205206,0.315417043,240.491622651,INS_SOLUTION_GOOD*917f8e1f
#INSPVAA,ICOM1,0,81.6,FINESTEERING,2269,270882.776,00000000,02ff,769;2269,270882.776000000,23.26329487118,113.52483216682,27.2101,-1.6934,-3.1126,0.0114,-0.163647055,0.313654539,240.489776949,INS_SOLUTION_GOOD*30281375
#INSPVAA,ICOM1,0,81.6,FINESTEERING,2269,270882.784,00000000,0307,769;2269,270882.784000000,23.26329474817,113.52483192325,27.2103,-1.6944,-3.1102,0.0155,-0.164277854,0.310657021,240.486428838,INS_SOLUTION_GOOD*46f584ca
#INSPVAA,ICOM1,0,81.6,FINESTEERING,2269,270882.792,00000000,030f,769;2269,270882.792000000,23.26329462527,113.52483167989,27.2105,-1.6934,-3.1077,0.0134,-0.162221264,0.308631403,240.484725309,INS_SOLUTION_GOOD*e8823626
#INSPVAA,ICOM1,0,81.6,FINESTEERING,2269,270882.800,00000000,0317,769;2269,270882.800000000,23.26329450239,113.52483143679,27.2107,-1.6930,-3.1045,0.0113,-0.157403199,0.301154289,240.482168198,INS_SOLUTION_GOOD*50e3434c
#INSPVAA,ICOM1,0,81.6,FINESTEERING,2269,270882.808,00000000,031f,769;2269,270882.808000000,23.26329437952,113.52483119370,27.2109,-1.6929,-3.1041,0.0122,-0.155457238,0.300705049,240.480024202,INS_SOLUTION_GOOD*86f105a1
#INSPVAA,ICOM1,0,81.6,FINESTEERING,2269,270882.816,00000000,0327,769;2269,270882.816000000,23.26329425673,113.52483095090,27.2111,-1.6919,-3.1011,0.0123,-0.153517902,0.301879469,240.477193764,INS_SOLUTION_GOOD*4b56ed71
#INSPVAA,ICOM1,0,81.6,FINESTEERING,2269,270882.824,00000000,032f,769;2269,270882.824000000,23.26329413389,113.52483070831,27.2113,-1.6924,-3.0981,0.0099,-0.148020371,0.300523705,240.474614651,INS_SOLUTION_GOOD*d246a5a1
#INSPVAA,ICOM1,0,81.6,FINESTEERING,2269,270882.832,00000000,0337,769;2269,270882.832000000,23.26329401102,113.52483046578,27.2114,-1.6930,-3.0971,0.0093,-0.148914621,0.296319918,240.471973073,INS_SOLUTION_GOOD*202e15d7
#INSPVAA,ICOM1,0,81.6,FINESTEERING,2269,270882.840,00000000,033f,769;2269,270882.840000000,23.26329388812,113.52483022332,27.2116,-1.6938,-3.0967,0.0106,-0.142637246,0.297764607,240.470270492,INS_SOLUTION_GOOD*050a4fef
#INSPVAA,ICOM1,0,81.6,FINESTEERING,2269,270882.848,00000000,0347,769;2269,270882.848000000,23.26329376529,113.52482998102,27.2118,-1.6930,-3.0950,0.0057,-0.136881789,0.295839518,240.468919250,INS_SOLUTION_GOOD*bdd9ec87
#INSPVAA,ICOM1,0,81.6,FINESTEERING,2269,270882.856,00000000,034f,769;2269,270882.856000000,23.26329364255,113.52482973880,27.2119,-1.6914,-3.0939,0.0051,-0.139301245,0.295180549,240.466815798,INS_SOLUTION_GOOD*4cdede64
#INSPVAA,ICOM1,0,81.6,FINESTEERING,2269,270882.864,00000000,0357,769;2269,270882.864000000,23.26329351982,113.52482949668,27.2121,-1.6909,-3.0927,0.0046,-0.137475160,0.296268980,240.464640630,INS_SOLUTION_GOOD*b8ab0aeb
#INSPVAA,ICOM1,0,81.6,FINESTEERING,2269,270882.872,00000000,035f,769;2269,270882.872000000,23.26329339722,113.52482925469,27.2122,-1.6894,-3.0910,0.0033,-0.137778075,0.297618947,240.462183795,INS_SOLUTION_GOOD*8bcd10f0
#INSPVAA,ICOM1,0,81.6,FINESTEERING,2269,270882.880,00000000,0367,769;2269,270882.880000000,23.26329327463,113.52482901276,27.2124,-1.6889,-3.0901,0.0053,-0.137839452,0.299723954,240.459798996,INS_SOLUTION_GOOD*8bb24fa8
#INSPVAA,ICOM1,0,81.6,FINESTEERING,2269,270882.888,00000000,036f,769;2269,270882.888000000,23.26329315212,113.52482877086,27.2125,-1.6879,-3.0898,0.0027,-0.133463225,0.299052435,240.457878615,INS_SOLUTION_GOOD*1e6a2ce2
#INSPVAA,ICOM1,0,81.6,FINESTEERING,2269,270882.896,00000000,0377,769;2269,270882.896000000,23.26329302964,113.52482852914,27.2126,-1.6875,-3.0879,0.0015,-0.139063711,0.298640582,240.455658802,INS_SOLUTION_GOOD*defbacea
#INSPVAA,ICOM1,0,81.6,FINESTEERING,2269,270882.904,00000000,037f,769;2269,270882.904000000,23.26329290722,113.52482828744,27.2127,-1.6869,-3.0873,-0.0003,-0.139494498,0.296554021,240.453459001,INS_SOLUTION_GOOD*2dd5b397
#INSPVAA,ICOM1,0,81.6,FINESTEERING,2269,270882.912,00000000,0387,769;2269,270882.912000000,23.26329278495,113.52482804580,27.2128,-1.6849,-3.0867,0.0015,-0.142126258,0.305499662,240.451183634,INS_SOLUTION_GOOD*dd32930b
#INSPVAA,ICOM1,0,81.6,FINESTEERING,2269,270882.920,00000000,038f,769;2269,270882.920000000,23.26329266264,113.52482780441,27.2129,-1.6850,-3.0837,-0.0041,-0.141808912,0.306229828,240.447955330,INS_SOLUTION_GOOD*2d205742
#INSPVAA,ICOM1,0,81.6,FINESTEERING,2269,270882.928,00000000,0397,769;2269,270882.928000000,23.26329254037,113.52482756296,27.2130,-1.6848,-3.0838,-0.0017,-0.145759738,0.310915119,240.445667252,INS_SOLUTION_GOOD*733b592d
#INSPVAA,ICOM1,0,81.6,FINESTEERING,2269,270882.936,00000000,039f,769;2269,270882.936000000,23.26329241812,113.52482732171,27.2131,-1.6848,-3.0818,-0.0015,-0.146372400,0.311826693,240.443054238,INS_SOLUTION_GOOD*b5c88856
#INSPVAA,ICOM1,0,81.6,FINESTEERING,2269,270882.944,00000000,03a7,769;2269,270882.944000000,23.26329229577,113.52482708048,27.2131,-1.6861,-3.0812,-0.0056,-0.145309403,0.314184513,240.440677073,INS_SOLUTION_GOOD*644fd4f8
#INSPVAA,ICOM1,0,81.6,FINESTEERING,2269,270882.952,00000000,03af,769;2269,270882.952000000,23.26329217353,113.52482683931,27.2132,-1.6851,-3.0807,-0.0068,-0.148833968,0.316791841,240.438996238,INS_SOLUTION_GOOD*65c5a249
#INSPVAA,ICOM1,0,81.6,FINESTEERING,2269,270882.960,00000000,03b7,769;2269,270882.960000000,23.26329205142,113.52482659825,27.2132,-1.6832,-3.0795,-0.0059,-0.152077960,0.324180803,240.437340103,INS_SOLUTION_GOOD*f2b50b26
#INSPVAA,ICOM1,0,81.6,FINESTEERING,2269,270882.968,00000000,03bf,769;2269,270882.968000000,23.26329192920,113.52482635735,27.2133,-1.6840,-3.0774,-0.0072,-0.149244458,0.329213418,240.434700638,INS_SOLUTION_GOOD*ccbaa08f
#INSPVAA,ICOM1,0,81.6,FINESTEERING,2269,270882.976,00000000,03c7,769;2269,270882.976000000,23.26329180712,113.52482611650,27.2133,-1.6828,-3.0764,-0.0063,-0.153569785,0.331673379,240.431987651,INS_SOLUTION_GOOD*2f1a2e39
#INSPVAA,ICOM1,0,81.6,FINESTEERING,2269,270882.984,00000000,03cf,769;2269,270882.984000000,23.26329168494,113.52482587572,27.2134,-1.6837,-3.0756,-0.0051,-0.155123573,0.332432152,240.429580681,INS_SOLUTION_GOOD*b402104f
#INSPVAA,ICOM1,0,81.6,FINESTEERING,2269,270882.992,00000000,03d7,769;2269,270882.992000000,23.26329156278,113.52482563523,27.2134,-1.6839,-3.0722,-0.0067,-0.154715029,0.337631806,240.427750924,INS_SOLUTION_GOOD*23beabc8
#INSPVAA,ICOM1,0,81.6,FINESTEERING,2269,270883.000,00000000,03df,769;2269,270883.000000000,23.26329144079,113.52482539473,27.2135,-1.6818,-3.0715,-0.0071,-0.157640773,0.337783994,240.426016324,INS_SOLUTION_GOOD*68942177
#INSPVAA,ICOM1,0,81.6,FINESTEERING,2269,270883.008,00000000,03e7,769;2269,270883.008000000,23.26329131937,113.52482515465,27.2134,-1.6804,-3.0701,-0.0067,-0.159578018,0.341846597,240.423938801,INS_SOLUTION_GOOD*f077baee
#INSPVAA,ICOM1,0,81.6,FINESTEERING,2269,270883.016,00000000,0007,769;2269,270883.016000000,23.26329119807,113.52482491475,27.2134,-1.6788,-3.0677,-0.0047,-0.160954149,0.347812379,240.419951003,INS_SOLUTION_GOOD*3b620e66
#INSPVAA,ICOM1,0,81.6,FINESTEERING,2269,270883.024,00000000,000f,769;2269,270883.024000000,23.26329107665,113.52482467496,27.2133,-1.6800,-3.0661,-0.0042,-0.164395256,0.347570617,240.417694203,INS_SOLUTION_GOOD*f23131b2
#INSPVAA,ICOM1,0,81.6,FINESTEERING,2269,270883.032,00000000,0017,769;2269,270883.032000000,23.26329095524,113.52482443533,27.2133,-1.6806,-3.0640,-0.0017,-0.161627146,0.350360671,240.415569508,INS_SOLUTION_GOOD*4f26b2a1
#INSPVAA,ICOM1,0,81.6,FINESTEERING,2269,270883.040,00000000,001f,769;2269,270883.040000000,23.26329083404,113.52482419575,27.2133,-1.6781,-3.0633,-0.0019,-0.168412380,0.348987905,240.413059305,INS_SOLUTION_GOOD*806548cc
#INSPVAA,ICOM1,0,81.6,FINESTEERING,2269,270883.048,00000000,0027,769;2269,270883.048000000,23.26329071278,113.52482395628,27.2133,-1.6780,-3.0622,-0.0027,-0.171668249,0.346088995,240.410466627,INS_SOLUTION_GOOD*3e7cc51a
#INSPVAA,ICOM1,0,81.6,FINESTEERING,2269,270883.056,00000000,002f,769;2269,270883.056000000,23.26329059157,113.52482371691,27.2133,-1.6777,-3.0611,-0.0002,-0.170364759,0.351377886,240.407509912,INS_SOLUTION_GOOD*958ba0cd
#BESTPOSA,ICOM1,0,81.6,FINESTEERING,2269,270883.000,00000000,0001,769;SOL_COMPUTED,NARROW_INT,23.26328986663,113.52482275743,34.7113,-6.3552,WGS84,0.0137,0.0145,0.0252,"3973",1.000,0.051,53,25,25,25,00,00,30,37*9c20cae7
#INSPVAA,ICOM1,0,81.6,FINESTEERING,2269,270883.064,00000000,0037,769;2269,270883.064000000,23.26329047039,113.52482347776,27.2133,-1.6773,-3.0583,-0.0017,-0.175530054,0.348809173,240.404947869,INS_SOLUTION_GOOD*3d205cef
#INSPVAA,ICOM1,0,81.6,FINESTEERING,2269,270883.072,00000000,003f,769;2269,270883.072000000,23.26329034915,113.52482323864,27.2133,-1.6781,-3.0573,0.0014,-0.176639780,0.353073248,240.403520689,INS_SOLUTION_GOOD*b44cae27
#INSPVAA,ICOM1,0,81.6,FINESTEERING,2269,270883.080,00000000,0047,769;2269,270883.080000000,23.26329022799,113.52482299967,27.2133,-1.6774,-3.0558,0.0009,-0.177089392,0.348143131,240.401108185,INS_SOLUTION_GOOD*62f393b6
#INSPVAA,ICOM1,0,81.6,FINESTEERING,2269,270883.088,00000000,004f,769;2269,270883.088000000,23.26329010689,113.52482276067,27.2133,-1.6763,-3.0561,0.0010,-0.181739309,0.345931873,240.398675620,INS_SOLUTION_GOOD*5473904a
#INSPVAA,ICOM1,0,81.6,FINESTEERING,2269,270883.096,00000000,0057,769;2269,270883.096000000,23.26328998581,113.52482252188,27.2133,-1.6758,-3.0539,0.0012,-0.182590500,0.346705932,240.396332314,INS_SOLUTION_GOOD*1fea0221
#INSPVAA,ICOM1,0,81.6,FINESTEERING,2269,270883.104,00000000,005f,769;2269,270883.104000000,23.26328986477,113.52482228319,27.2133,-1.6754,-3.0523,-0.0009,-0.182085922,0.344051221,240.394813065,INS_SOLUTION_GOOD*8cbbfb93
#INSPVAA,ICOM1,0,81.6,FINESTEERING,2269,270883.112,00000000,0067,769;2269,270883.112000000,23.26328974371,113.52482204454,27.2133,-1.6755,-3.0516,-0.0007,-0.183732986,0.344617419,240.393313140,INS_SOLUTION_GOOD*fa513d83
#INSPVAA,ICOM1,0,81.6,FINESTEERING,2269,270883.120,00000000,006f,769;2269,270883.120000000,23.26328962276,113.52482180610,27.2133,-1.6744,-3.0492,0.0016,-0.184526237,0.345063100,240.391188608,INS_SOLUTION_GOOD*11a99192
#INSPVAA,ICOM1,0,81.6,FINESTEERING,2269,270883.128,00000000,0077,769;2269,270883.128000000,23.26328950193,113.52482156777,27.2133,-1.6724,-3.0475,0.0006,-0.183617376,0.345199828,240.390163229,INS_SOLUTION_GOOD*b23c9219
#INSPVAA,ICOM1,0,81.6,FINESTEERING,2269,270883.136,00000000,007f,769;2269,270883.136000000,23.26328938117,113.52482132947,27.2133,-1.6711,-3.0470,0.0009,-0.185027292,0.344843230,240.388192961,INS_SOLUTION_GOOD*bc8e8ed3
#INSPVAA,ICOM1,0,81.6,FINESTEERING,2269,270883.144,00000000,0087,769;2269,270883.144000000,23.26328926051,113.52482109137,27.2133,-1.6697,-3.0448,0.0012,-0.187146406,0.340670354,240.386508035,INS_SOLUTION_GOOD*eaa169a1
#INSPVAA,ICOM1,0,81.6,FINESTEERING,2269,270883.152,00000000,008f,769;2269,270883.152000000,23.26328913989,113.52482085327,27.2133,-1.6692,-3.0446,0.0033,-0.186908242,0.342546773,240.385069797,INS_SOLUTION_GOOD*9d6b1262
#INSPVAA,ICOM1,0,81.6,FINESTEERING,2269,270883.160,00000000,0097,769;2269,270883.160000000,23.26328901932,113.52482061528,27.2133,-1.6686,-3.0434,0.0024,-0.185192599,0.340245713,240.383614543,INS_SOLUTION_GOOD*5579086f
#INSPVAA,ICOM1,0,81.6,FINESTEERING,2269,270883.168,00000000,009f,769;2269,270883.168000000,23.26328889890,113.52482037733,27.2134,-1.6667,-3.0430,0.0044,-0.186912563,0.341301753,240.382165655,INS_SOLUTION_GOOD*725ca0c8
#INSPVAA,ICOM1,0,81.6,FINESTEERING,2269,270883.176,00000000,00a7,769;2269,270883.176000000,23.26328877850,113.52482013949,27.2134,-1.6660,-3.0417,0.0025,-0.187050012,0.341135478,240.380626127,INS_SOLUTION_GOOD*7944bd8f
#INSPVAA,ICOM1,0,81.6,FINESTEERING,2269,270883.184,00000000,00af,769;2269,270883.184000000,23.26328865813,113.52481990177,27.2134,-1.6657,-3.0401,0.0028,-0.185963128,0.339235539,240.378943086,INS_SOLUTION_GOOD*2d96b73f
#INSPVAA,ICOM1,0,81.6,FINESTEERING,2269,270883.192,00000000,00b7,769;2269,270883.192000000,23.26328853795,113.52481966393,27.2135,-1.6635,-3.0413,0.0044,-0.189891024,0.340506831,240.377741356,INS_SOLUTION_GOOD*7e42ec8f
#INSPVAA,ICOM1,0,81.6,FINESTEERING,2269,270883.200,00000000,00bf,769;2269,270883.200000000,23.26328841774,113.52481942635,27.2135,-1.6634,-3.0388,0.0046,-0.187854227,0.340937881,240.376399643,INS_SOLUTION_GOOD*25b63c85
#INSPVAA,ICOM1,0,81.6,FINESTEERING,2269,270883.208,00000000,00c7,769;2269,270883.208000000,23.26328829758,113.52481918891,27.2135,-1.6629,-3.0364,0.0031,-0.185725380,0.342884026,240.375498450,INS_SOLUTION_GOOD*d4fdcb76
#INSPVAA,ICOM1,0,81.6,FINESTEERING,2269,270883.216,00000000,00cf,769;2269,270883.216000000,23.26328817750,113.52481895151,27.2135,-1.6621,-3.0355,0.0018,-0.185168089,0.340102647,240.374656018,INS_SOLUTION_GOOD*192a5b2e
#INSPVAA,ICOM1,0,81.6,FINESTEERING,2269,270883.224,00000000,00d7,769;2269,270883.224000000,23.26328805743,113.52481871422,27.2136,-1.6617,-3.0343,0.0039,-0.183450520,0.343365730,240.374286848,INS_SOLUTION_GOOD*dd3e8552
#INSPVAA,ICOM1,0,81.6,FINESTEERING,2269,270883.232,00000000,00df,769;2269,270883.232000000,23.26328793758,113.52481847703,27.2136,-1.6590,-3.0332,0.0052,-0.180719801,0.345912088,240.373454066,INS_SOLUTION_GOOD*941027fc
#INSPVAA,ICOM1,0,81.6,FINESTEERING,2269,270883.240,00000000,00e7,769;2269,270883.240000000,23.26328781781,113.52481823998,27.2136,-1.6573,-3.0313,0.0012,-0.183502400,0.345181228,240.372382422,INS_SOLUTION_GOOD*15541fbd
#INSPVAA,ICOM1,0,81.6,FINESTEERING,2269,270883.248,00000000,00ef,769;2269,270883.248000000,23.26328769796,113.52481800302,27.2137,-1.6582,-3.0300,0.0092,-0.180639883,0.349794901,240.370363650,INS_SOLUTION_GOOD*bf86d5a1
#INSPVAA,ICOM1,0,81.6,FINESTEERING,2269,270883.256,00000000,00f7,769;2269,270883.256000000,23.26328757825,113.52481776639,27.2137,-1.6571,-3.0261,0.0092,-0.178796452,0.348823120,240.370016714,INS_SOLUTION_GOOD*59b97052
#INSPVAA,ICOM1,0,81.6,FINESTEERING,2269,270883.264,00000000,00ff,769;2269,270883.264000000,23.26328745861,113.52481752968,27.2138,-1.6559,-3.0262,0.0087,-0.179448238,0.347868114,240.370033128,INS_SOLUTION_GOOD*196ea907
#INSPVAA,ICOM1,0,81.6,FINESTEERING,2269,270883.272,00000000,0107,769;2269,270883.272000000,23.26328733896,113.52481729302,27.2139,-1.6559,-3.0262,0.0095,-0.181951567,0.344519699,240.368580697,INS_SOLUTION_GOOD*34ce02c1
#INSPVAA,ICOM1,0,81.6,FINESTEERING,2269,270883.280,00000000,010f,769;2269,270883.280000000,23.26328721938,113.52481705660,27.2140,-1.6551,-3.0236,0.0124,-0.181169869,0.345427627,240.367958548,INS_SOLUTION_GOOD*267aadeb
#INSPVAA,ICOM1,0,81.6,FINESTEERING,2269,270883.288,00000000,0117,769;2269,270883.288000000,23.26328709993,113.52481682026,27.2140,-1.6533,-3.0221,0.0084,-0.180454385,0.346497859,240.368067342,INS_SOLUTION_GOOD*660d2990
#INSPVAA,ICOM1,0,81.6,FINESTEERING,2269,270883.296,00000000,011f,769;2269,270883.296000000,23.26328698058,113.52481658408,27.2141,-1.6516,-3.0201,0.0091,-0.184694623,0.347890427,240.366493899,INS_SOLUTION_GOOD*f99ff784
#INSPVAA,ICOM1,0,81.6,FINESTEERING,2269,270883.304,00000000,0127,769;2269,270883.304000000,23.26328686120,113.52481634789,27.2142,-1.6518,-3.0199,0.0124,-0.187484280,0.348889956,240.365830779,INS_SOLUTION_GOOD*f0f98dff
#INSPVAA,ICOM1,0,81.6,FINESTEERING,2269,270883.312,00000000,012f,769;2269,270883.312000000,23.26328674025,113.52481611150,27.2144,-1.6507,-3.0190,0.0122,-0.187072345,0.347352105,240.365484694,INS_SOLUTION_GOOD*317c783b
#INSPVAA,ICOM1,0,81.6,FINESTEERING,2269,270883.320,00000000,0137,769;2269,270883.320000000,23.26328662009,113.52481587546,27.2145,-1.6517,-3.0167,0.0120,-0.187979473,0.345353404,240.364156708,INS_SOLUTION_GOOD*d8e15f1c
#INSPVAA,ICOM1,0,81.6,FINESTEERING,2269,270883.328,00000000,013f,769;2269,270883.328000000,23.26328650001,113.52481563954,27.2146,-1.6513,-3.0148,0.0105,-0.190892408,0.346624689,240.364263406,INS_SOLUTION_GOOD*d859c152
#INSPVAA,ICOM1,0,81.6,FINESTEERING,2269,270883.336,00000000,0147,769;2269,270883.336000000,23.26328637999,113.52481540377,27.2147,-1.6502,-3.0128,0.0102,-0.194948174,0.348601126,240.363394298,INS_SOLUTION_GOOD*07938f80
#INSPVAA,ICOM1,0,81.6,FINESTEERING,2269,270883.344,00000000,014f,769;2269,270883.344000000,23.26328625996,113.52481516815,27.2148,-1.6502,-3.0107,0.0088,-0.196571175,0.346667827,240.361667450,INS_SOLUTION_GOOD*446805f5
#INSPVAA,ICOM1,0,81.6,FINESTEERING,2269,270883.352,00000000,0157,769;2269,270883.352000000,23.26328613988,113.52481493262,27.2150,-1.6509,-3.0097,0.0109,-0.198505280,0.349154757,240.362222065,INS_SOLUTION_GOOD*4eadcdc9
#INSPVAA,ICOM1,0,81.6,FINESTEERING,2269,270883.360,00000000,015f,769;2269,270883.360000000,23.26328601977,113.52481469733,27.2151,-1.6517,-3.0068,0.0123,-0.195479890,0.351495981,240.361950424,INS_SOLUTION_GOOD*97285e88
#INSPVAA,ICOM1,0,81.6,FINESTEERING,2269,270883.368,00000000,0167,769;2269,270883.368000000,23.26328589977,113.52481446222,27.2152,-1.6503,-3.0041,0.0100,-0.192908389,0.348912975,240.362468131,INS_SOLUTION_GOOD*0c884ddf
#INSPVAA,ICOM1,0,81.6,FINESTEERING,2269,270883.376,00000000,016f,769;2269,270883.376000000,23.26328577978,113.52481422716,27.2153,-1.6498,-3.0032,0.0079,-0.196749644,0.348896418,240.362077632,INS_SOLUTION_GOOD*ef26f2e7
#INSPVAA,ICOM1,0,81.6,FINESTEERING,2269,270883.384,00000000,0177,769;2269,270883.384000000,23.26328565968,113.52481399225,27.2154,-1.6511,-3.0017,0.0122,-0.196816127,0.350922181,240.360762301,INS_SOLUTION_GOOD*4c1b1811
#INSPVAA,ICOM1,0,81.6,FINESTEERING,2269,270883.392,00000000,017f,769;2269,270883.392000000,23.26328553971,113.52481375764,27.2155,-1.6499,-2.9982,0.0096,-0.191354926,0.348298501,240.360924272,INS_SOLUTION_GOOD*7e3013ec
#INSPVAA,ICOM1,0,81.6,FINESTEERING,2269,270883.400,00000000,0187,769;2269,270883.400000000,23.26328541971,113.52481352306,27.2157,-1.6498,-2.9970,0.0106,-0.194460495,0.355368850,240.360726265,INS_SOLUTION_GOOD*cb4b2625
#INSPVAA,ICOM1,0,81.6,FINESTEERING,2269,270883.408,00000000,018f,769;2269,270883.408000000,23.26328529969,113.52481328869,27.2158,-1.6502,-2.9947,0.0127,-0.188255525,0.350797730,240.361356355,INS_SOLUTION_GOOD*c126fa77
#INSPVAA,ICOM1,0,81.6,FINESTEERING,2269,270883.416,00000000,0197,769;2269,270883.416000000,23.26328517980,113.52481305430,27.2159,-1.6486,-2.9949,0.0126,-0.188324776,0.351442400,240.361183937,INS_SOLUTION_GOOD*7c32526b
#INSPVAA,ICOM1,0,81.6,FINESTEERING,2269,270883.424,00000000,019f,769;2269,270883.424000000,23.26328505994,113.52481282008,27.2161,-1.6476,-2.9933,0.0133,-0.188040917,0.349316032,240.360822677,INS_SOLUTION_GOOD*689afe9a
#INSPVAA,ICOM1,0,81.6,FINESTEERING,2269,270883.432,00000000,01a7,769;2269,270883.432000000,23.26328494011,113.52481258595,27.2162,-1.6473,-2.9919,0.0124,-0.186655173,0.348963213,240.360253198,INS_SOLUTION_GOOD*9cb8e180
#INSPVAA,ICOM1,0,81.6,FINESTEERING,2269,270883.440,00000000,01af,769;2269,270883.440000000,23.26328482039,113.52481235189,27.2163,-1.6459,-2.9910,0.0141,-0.185007582,0.350796544,240.360650277,INS_SOLUTION_GOOD*e43f8ccb
#INSPVAA,ICOM1,0,79.2,FINESTEERING,2269,270883.448,00000000,01b7,769;2269,270883.448000000,23.26328470076,113.52481211806,27.2165,-1.6443,-2.9883,0.0158,-0.186092036,0.350488572,240.360223204,INS_SOLUTION_GOOD*4bdbd767
#INSPVAA,ICOM1,0,79.2,FINESTEERING,2269,270883.456,00000000,01bf,769;2269,270883.456000000,23.26328458116,113.52481188419,27.2167,-1.6438,-2.9883,0.0182,-0.185897278,0.349758329,240.359579774,INS_SOLUTION_GOOD*fec47357
#INSPVAA,ICOM1,0,79.2,FINESTEERING,2269,270883.464,00000000,01c7,769;2269,270883.464000000,23.26328446174,113.52481165038,27.2168,-1.6416,-2.9880,0.0184,-0.186465717,0.347919786,240.359238430,INS_SOLUTION_GOOD*e78215e9
#INSPVAA,ICOM1,0,79.2,FINESTEERING,2269,270883.472,00000000,01cf,769;2269,270883.472000000,23.26328434238,113.52481141670,27.2170,-1.6403,-2.9864,0.0202,-0.188636651,0.343670110,240.358591489,INS_SOLUTION_GOOD*2c3209fc
#INSPVAA,ICOM1,0,79.2,FINESTEERING,2269,270883.480,00000000,01d7,769;2269,270883.480000000,23.26328422312,113.52481118307,27.2172,-1.6390,-2.9856,0.0198,-0.189601484,0.343011923,240.357832713,INS_SOLUTION_GOOD*ab21b991
#INSPVAA,ICOM1,0,79.2,FINESTEERING,2269,270883.488,00000000,01df,769;2269,270883.488000000,23.26328410401,113.52481094965,27.2174,-1.6369,-2.9830,0.0186,-0.192711742,0.339234161,240.357080614,INS_SOLUTION_GOOD*0469a2f4
#INSPVAA,ICOM1,0,79.2,FINESTEERING,2269,270883.496,00000000,01e7,769;2269,270883.496000000,23.26328398498,113.52481071624,27.2176,-1.6356,-2.9825,0.0193,-0.198413638,0.337348584,240.355891301,INS_SOLUTION_GOOD*9869005a
#INSPVAA,ICOM1,0,79.2,FINESTEERING,2269,270883.504,00000000,01ef,769;2269,270883.504000000,23.26328386595,113.52481048295,27.2178,-1.6357,-2.9811,0.0181,-0.198895478,0.336155370,240.354164459,INS_SOLUTION_GOOD*f7d67eeb
#INSPVAA,ICOM1,0,79.2,FINESTEERING,2269,270883.512,00000000,01f7,769;2269,270883.512000000,23.26328374703,113.52481024976,27.2179,-1.6347,-2.9799,0.0157,-0.198517792,0.335422774,240.353788625,INS_SOLUTION_GOOD*a02c7326
#INSPVAA,ICOM1,0,79.2,FINESTEERING,2269,270883.520,00000000,01ff,769;2269,270883.520000000,23.26328362815,113.52481001654,27.2181,-1.6339,-2.9802,0.0147,-0.203150874,0.331893781,240.352862019,INS_SOLUTION_GOOD*79848f0f
#INSPVAA,ICOM1,0,79.2,FINESTEERING,2269,270883.528,00000000,0207,769;2269,270883.528000000,23.26328350929,113.52480978352,27.2182,-1.6337,-2.9781,0.0128,-0.206511572,0.333104081,240.350465469,INS_SOLUTION_GOOD*34ce920d
#INSPVAA,ICOM1,0,79.2,FINESTEERING,2269,270883.536,00000000,020f,769;2269,270883.536000000,23.26328339046,113.52480955060,27.2183,-1.6334,-2.9763,0.0098,-0.208739129,0.329959082,240.350029629,INS_SOLUTION_GOOD*ae5db393
#INSPVAA,ICOM1,0,79.2,FINESTEERING,2269,270883.544,00000000,0217,769;2269,270883.544000000,23.26328327165,113.52480931773,27.2184,-1.6332,-2.9756,0.0087,-0.207664338,0.331703388,240.349461890,INS_SOLUTION_GOOD*d5e74d09
#INSPVAA,ICOM1,0,79.2,FINESTEERING,2269,270883.552,00000000,021f,769;2269,270883.552000000,23.26328315281,113.52480908500,27.2185,-1.6336,-2.9741,0.0086,-0.205553890,0.331815659,240.348248927,INS_SOLUTION_GOOD*11b1d926
#INSPVAA,ICOM1,0,79.2,FINESTEERING,2269,270883.560,00000000,0227,769;2269,270883.560000000,23.26328303404,113.52480885227,27.2186,-1.6329,-2.9738,0.0055,-0.207046011,0.332538237,240.347813902,INS_SOLUTION_GOOD*040bd5e5
#INSPVAA,ICOM1,0,79.2,FINESTEERING,2269,270883.568,00000000,022f,769;2269,270883.568000000,23.26328291533,113.52480861957,27.2187,-1.6318,-2.9737,0.0018,-0.206028861,0.328063917,240.346142773,INS_SOLUTION_GOOD*2a879a1e
#INSPVAA,ICOM1,0,79.2,FINESTEERING,2269,270883.576,00000000,0237,769;2269,270883.576000000,23.26328279663,113.52480838698,27.2187,-1.6315,-2.9726,0.0028,-0.206093579,0.332569766,240.345321439,INS_SOLUTION_GOOD*f55f7bd0
#INSPVAA,ICOM1,0,79.2,FINESTEERING,2269,270883.584,00000000,023f,769;2269,270883.584000000,23.26328267796,113.52480815468,27.2188,-1.6312,-2.9689,-0.0021,-0.199902111,0.332126733,240.344740293,INS_SOLUTION_GOOD*1b9ef5d7
#INSPVAA,ICOM1,0,79.2,FINESTEERING,2269,270883.592,00000000,0247,769;2269,270883.592000000,23.26328255942,113.52480792229,27.2188,-1.6295,-2.9689,-0.0023,-0.199385897,0.335087216,240.343526324,INS_SOLUTION_GOOD*76506490
#INSPVAA,ICOM1,0,79.2,FINESTEERING,2269,270883.600,00000000,024f,769;2269,270883.600000000,23.26328244089,113.52480769013,27.2188,-1.6290,-2.9667,-0.0000,-0.195624535,0.334860092,240.341770809,INS_SOLUTION_GOOD*3a587ec0
#INSPVAA,ICOM1,0,79.2,FINESTEERING,2269,270883.608,00000000,0257,769;2269,270883.608000000,23.26328232253,113.52480745790,27.2188,-1.6268,-2.9673,-0.0028,-0.188931394,0.337654398,240.341831770,INS_SOLUTION_GOOD*f63c96e1
#INSPVAA,ICOM1,0,79.2,FINESTEERING,2269,270883.616,00000000,025f,769;2269,270883.616000000,23.26328220424,113.52480722579,27.2188,-1.6254,-2.9664,-0.0068,-0.187035941,0.335531380,240.340117098,INS_SOLUTION_GOOD*da6a4091
#INSPVAA,ICOM1,0,79.2,FINESTEERING,2269,270883.624,00000000,0267,769;2269,270883.624000000,23.26328208585,113.52480699372,27.2188,-1.6266,-2.9657,-0.0047,-0.184542582,0.336551677,240.338334101,INS_SOLUTION_GOOD*c2e3799e
#INSPVAA,ICOM1,0,79.2,FINESTEERING,2269,270883.632,00000000,026f,769;2269,270883.632000000,23.26328196773,113.52480676176,27.2188,-1.6239,-2.9643,-0.0044,-0.183540370,0.341013494,240.337951023,INS_SOLUTION_GOOD*98a2623d
#INSPVAA,ICOM1,0,79.2,FINESTEERING,2269,270883.640,00000000,0277,769;2269,270883.640000000,23.26328184962,113.52480652998,27.2188,-1.6228,-2.9620,-0.0061,-0.179599465,0.340738618,240.336717675,INS_SOLUTION_GOOD*010e8b1f
#INSPVAA,ICOM1,0,79.2,FINESTEERING,2269,270883.648,00000000,027f,769;2269,270883.648000000,23.26328173152,113.52480629804,27.2188,-1.6229,-2.9634,-0.0050,-0.176125360,0.342045477,240.336098569,INS_SOLUTION_GOOD*76317b79
#INSPVAA,ICOM1,0,79.2,FINESTEERING,2269,270883.656,00000000,0287,769;2269,270883.656000000,23.26328161368,113.52480606616,27.2188,-1.6197,-2.9636,-0.0001,-0.177293238,0.344177184,240.335014516,INS_SOLUTION_GOOD*0080f957
#INSPVAA,ICOM1,0,79.2,FINESTEERING,2269,270883.664,00000000,028f,769;2269,270883.664000000,23.26328149575,113.52480583443,27.2188,-1.6201,-2.9617,-0.0035,-0.172033729,0.341670804,240.333409201,INS_SOLUTION_GOOD*745264e9
#INSPVAA,ICOM1,0,79.2,FINESTEERING,2269,270883.672,00000000,0297,769;2269,270883.672000000,23.26328137784,113.52480560259,27.2188,-1.6203,-2.9626,-0.0027,-0.179632583,0.341489006,240.332328794,INS_SOLUTION_GOOD*e30be902
#INSPVAA,ICOM1,0,79.2,FINESTEERING,2269,270883.680,00000000,029f,769;2269,270883.680000000,23.26328126003,113.52480537099,27.2189,-1.6193,-2.9601,0.0005,-0.179467197,0.341755914,240.331688227,INS_SOLUTION_GOOD*0d22ad69
#INSPVAA,ICOM1,0,79.2,FINESTEERING,2269,270883.688,00000000,02a7,769;2269,270883.688000000,23.26328114238,113.52480513939,27.2189,-1.6170,-2.9595,-0.0012,-0.179069463,0.343564278,240.331866214,INS_SOLUTION_GOOD*c2c9ef72
#INSPVAA,ICOM1,0,79.2,FINESTEERING,2269,270883.696,00000000,02af,769;2269,270883.696000000,23.26328102466,113.52480490783,27.2189,-1.6174,-2.9589,0.0017,-0.184222462,0.343191673,240.329281830,INS_SOLUTION_GOOD*fc3e83af
#INSPVAA,ICOM1,0,79.2,FINESTEERING,2269,270883.704,00000000,02b7,769;2269,270883.704000000,23.26328090706,113.52480467640,27.2190,-1.6163,-2.9575,0.0047,-0.184795081,0.340798531,240.328822564,INS_SOLUTION_GOOD*17cedb10
#INSPVAA,ICOM1,0,79.2,FINESTEERING,2269,270883.712,00000000,02bf,769;2269,270883.712000000,23.26328078954,113.52480444502,27.2190,-1.6149,-2.9567,0.0020,-0.190464387,0.341300104,240.328049042,INS_SOLUTION_GOOD*89c13a1c
#INSPVAA,ICOM1,0,79.2,FINESTEERING,2269,270883.720,00000000,02c7,769;2269,270883.720000000,23.26328067194,113.52480421394,27.2191,-1.6159,-2.9530,0.0033,-0.192484594,0.338573961,240.326079130,INS_SOLUTION_GOOD*92bec036
#INSPVAA,ICOM1,0,79.2,FINESTEERING,2269,270883.728,00000000,02cf,769;2269,270883.728000000,23.26328055448,113.52480398277,27.2191,-1.6146,-2.9533,0.0050,-0.194385580,0.339986724,240.326325260,INS_SOLUTION_GOOD*4cd36900
#INSPVAA,ICOM1,0,79.2,FINESTEERING,2269,270883.736,00000000,02d7,769;2269,270883.736000000,23.26328043694,113.52480375179,27.2193,-1.6153,-2.9515,0.0096,-0.192972635,0.343699855,240.325023471,INS_SOLUTION_GOOD*31ee6410
#INSPVAA,ICOM1,0,79.2,FINESTEERING,2269,270883.744,00000000,02df,769;2269,270883.744000000,23.26328031948,113.52480352097,27.2194,-1.6144,-2.9493,0.0107,-0.191259482,0.339715723,240.324940598,INS_SOLUTION_GOOD*aac9dae7
#INSPVAA,ICOM1,0,79.2,FINESTEERING,2269,270883.752,00000000,02e7,769;2269,270883.752000000,23.26328020204,113.52480329018,27.2195,-1.6140,-2.9487,0.0117,-0.193814145,0.338623434,240.323933308,INS_SOLUTION_GOOD*b6b53f28
#INSPVAA,ICOM1,0,79.2,FINESTEERING,2269,270883.760,00000000,02ef,769;2269,270883.760000000,23.26328008457,113.52480305937,27.2196,-1.6144,-2.9491,0.0130,-0.191557954,0.336098906,240.322479484,INS_SOLUTION_GOOD*05616175
#INSPVAA,ICOM1,0,79.2,FINESTEERING,2269,270883.768,00000000,02f7,769;2269,270883.768000000,23.26327996708,113.52480282858,27.2198,-1.6150,-2.9493,0.0158,-0.187965596,0.331973438,240.321626935,INS_SOLUTION_GOOD*2d4db71b
#INSPVAA,ICOM1,0,79.2,FINESTEERING,2269,270883.776,00000000,02ff,769;2269,270883.776000000,23.26327984959,113.52480259799,27.2199,-1.6149,-2.9470,0.0144,-0.187270798,0.333957665,240.321263703,INS_SOLUTION_GOOD*eda8e986
#INSPVAA,ICOM1,0,79.2,FINESTEERING,2269,270883.784,00000000,0307,769;2269,270883.784000000,23.26327973199,113.52480236757,27.2200,-1.6164,-2.9444,0.0141,-0.180223867,0.332097048,240.320971425,INS_SOLUTION_GOOD*71cb6968
#INSPVAA,ICOM1,0,79.2,FINESTEERING,2269,270883.792,00000000,030f,769;2269,270883.792000000,23.26327961455,113.52480213707,27.2202,-1.6148,-2.9448,0.0159,-0.178140987,0.330638155,240.320470593,INS_SOLUTION_GOOD*476502de
#INSPVAA,ICOM1,0,79.2,FINESTEERING,2269,270883.800,00000000,0317,769;2269,270883.800000000,23.26327949714,113.52480190661,27.2204,-1.6137,-2.9449,0.0168,-0.171315075,0.330352406,240.319702210,INS_SOLUTION_GOOD*9a4e3f81
#INSPVAA,ICOM1,0,79.2,FINESTEERING,2269,270883.808,00000000,031f,769;2269,270883.808000000,23.26327937969,113.52480167627,27.2205,-1.6139,-2.9437,0.0147,-0.167793081,0.328591293,240.318326571,INS_SOLUTION_GOOD*85bae422
#INSPVAA,ICOM1,0,79.2,FINESTEERING,2269,270883.816,00000000,0327,769;2269,270883.816000000,23.26327926227,113.52480144589,27.2207,-1.6138,-2.9439,0.0160,-0.164519906,0.327058513,240.318102277,INS_SOLUTION_GOOD*aee2d928
#INSPVAA,ICOM1,0,79.2,FINESTEERING,2269,270883.824,00000000,032f,769;2269,270883.824000000,23.26327914502,113.52480121560,27.2208,-1.6115,-2.9430,0.0116,-0.163011457,0.324618247,240.316716427,INS_SOLUTION_GOOD*47e89412
#INSPVAA,ICOM1,0,79.2,FINESTEERING,2269,270883.832,00000000,0337,769;2269,270883.832000000,23.26327902766,113.52480098547,27.2209,-1.6124,-2.9409,0.0138,-0.157116844,0.326635170,240.316142288,INS_SOLUTION_GOOD*161e5256
#INSPVAA,ICOM1,0,79.2,FINESTEERING,2269,270883.840,00000000,033f,769;2269,270883.840000000,23.26327891043,113.52480075521,27.2210,-1.6112,-2.9420,0.0102,-0.151658272,0.325968686,240.316487603,INS_SOLUTION_GOOD*f122bc8c
#INSPVAA,ICOM1,0,79.2,FINESTEERING,2269,270883.848,00000000,0347,769;2269,270883.848000000,23.26327879332,113.52480052511,27.2212,-1.6094,-2.9406,0.0093,-0.150989766,0.324691673,240.314888124,INS_SOLUTION_GOOD*21e9d2e8
#INSPVAA,ICOM1,0,79.2,FINESTEERING,2269,270883.856,00000000,034f,769;2269,270883.856000000,23.26327867617,113.52480029504,27.2213,-1.6093,-2.9400,0.0111,-0.151932471,0.326959477,240.314037558,INS_SOLUTION_GOOD*39e9e25d
#INSPVAA,ICOM1,0,79.2,FINESTEERING,2269,270883.864,00000000,0357,769;2269,270883.864000000,23.26327855918,113.52480006498,27.2213,-1.6076,-2.9398,0.0043,-0.150578977,0.322641394,240.313511773,INS_SOLUTION_GOOD*66321003
#INSPVAA,ICOM1,0,79.2,FINESTEERING,2269,270883.872,00000000,035f,769;2269,270883.872000000,23.26327844222,113.52479983482,27.2214,-1.6070,-2.9412,0.0035,-0.152011441,0.321160900,240.312291873,INS_SOLUTION_GOOD*57a6817e
#INSPVAA,ICOM1,0,79.2,FINESTEERING,2269,270883.880,00000000,0367,769;2269,270883.880000000,23.26327832508,113.52479960482,27.2215,-1.6092,-2.9397,0.0051,-0.152528150,0.324463999,240.311627310,INS_SOLUTION_GOOD*9a1b3545
#INSPVAA,ICOM1,0,79.2,FINESTEERING,2269,270883.888,00000000,036f,769;2269,270883.888000000,23.26327820803,113.52479937494,27.2215,-1.6091,-2.9378,-0.0012,-0.147414489,0.324411653,240.311672436,INS_SOLUTION_GOOD*8badd00f
#INSPVAA,ICOM1,0,79.2,FINESTEERING,2269,270883.896,00000000,0377,769;2269,270883.896000000,23.26327809106,113.52479914501,27.2215,-1.6078,-2.9378,-0.0042,-0.148962175,0.324218207,240.310870893,INS_SOLUTION_GOOD*ebefa85d
#INSPVAA,ICOM1,0,79.2,FINESTEERING,2269,270883.904,00000000,037f,769;2269,270883.904000000,23.26327797406,113.52479891518,27.2215,-1.6077,-2.9369,-0.0026,-0.151793887,0.326417314,240.310842983,INS_SOLUTION_GOOD*831d1a70
#INSPVAA,ICOM1,0,79.2,FINESTEERING,2269,270883.912,00000000,0387,769;2269,270883.912000000,23.26327785713,113.52479868523,27.2215,-1.6069,-2.9383,-0.0047,-0.149062763,0.329699378,240.310520903,INS_SOLUTION_GOOD*7a48c869
