#INSPVAA,ICOM1,0,82.5,FINESTEERING,2269,271482.064,00000000,0037,769;2269,271482.064000000,23.26335472506,113.52480550337,27.1228,-1.7579,-3.2721,0.0096,-0.411713113,0.352443750,240.388543721,INS_SOLUTION_GOOD*7d3eb273
#INSPVAA,ICOM1,0,82.5,FINESTEERING,2269,271482.072,00000000,003e,769;2269,271482.072000000,23.26335459793,113.52480524759,27.1229,-1.7599,-3.2720,0.0080,-0.413605141,0.349713230,240.389033849,INS_SOLUTION_GOOD*0b0c1b6a
#INSPVAA,ICOM1,0,82.5,FINESTEERING,2269,271482.080,00000000,0046,769;2269,271482.080000000,23.26335447074,113.52480499157,27.1229,-1.7612,-3.2747,0.0082,-0.413401338,0.347364653,240.391156336,INS_SOLUTION_GOOD*d006f730
#INSPVAA,ICOM1,0,82.5,FINESTEERING,2269,271482.088,00000000,0056,769;2269,271482.088000000,23.26335434373,113.52480473554,27.1230,-1.7589,-3.2757,0.0071,-0.407177628,0.346844782,240.392154503,INS_SOLUTION_GOOD*1516bdd4
#INSPVAA,ICOM1,0,82.5,FINESTEERING,2269,271482.096,00000000,0056,769;2269,271482.096000000,23.26335421670,113.52480447937,27.1231,-1.7582,-3.2772,0.0058,-0.404574528,0.345020498,240.393247520,INS_SOLUTION_GOOD*be24ec35
#INSPVAA,ICOM1,0,82.5,FINESTEERING,2269,271482.104,00000000,005f,769;2269,271482.104000000,23.26335408973,113.52480422309,27.1231,-1.7574,-3.2788,0.0085,-0.408375195,0.347751353,240.393419573,INS_SOLUTION_GOOD*dafc95d5
#INSPVAA,ICOM1,0,82.5,FINESTEERING,2269,271482.112,00000000,0066,769;2269,271482.112000000,23.26335396283,113.52480396678,27.1232,-1.7563,-3.2791,0.0105,-0.404592923,0.344999732,240.394152365,INS_SOLUTION_GOOD*31443453
#INSPVAA,ICOM1,0,82.5,FINESTEERING,2269,271482.120,00000000,006f,769;2269,271482.120000000,23.26335383592,113.52480371032,27.1233,-1.7564,-3.2806,0.0089,-0.408099431,0.343074117,240.394616813,INS_SOLUTION_GOOD*04ddf13d
#INSPVAA,ICOM1,0,82.5,FINESTEERING,2269,271482.128,00000000,0076,769;2269,271482.128000000,23.26335370906,113.52480345384,27.1233,-1.7560,-3.2811,0.0086,-0.407585162,0.339431170,240.394949959,INS_SOLUTION_GOOD*25752211
#INSPVAA,ICOM1,0,82.5,FINESTEERING,2269,271482.136,00000000,007f,769;2269,271482.136000000,23.26335358222,113.52480319712,27.1234,-1.7557,-3.2839,0.0096,-0.405574017,0.338181893,240.395656496,INS_SOLUTION_GOOD*6d894671
#INSPVAA,ICOM1,0,82.5,FINESTEERING,2269,271482.144,00000000,0086,769;2269,271482.144000000,23.26335345551,113.52480294028,27.1235,-1.7541,-3.2860,0.0088,-0.408923652,0.336084756,240.396360989,INS_SOLUTION_GOOD*2c62fb8d
#INSPVAA,ICOM1,0,82.5,FINESTEERING,2269,271482.152,00000000,008f,769;2269,271482.152000000,23.26335332872,113.52480268356,27.1235,-1.7546,-3.2847,0.0053,-0.405973149,0.333984137,240.395134322,INS_SOLUTION_GOOD*530f245e
#INSPVAA,ICOM1,0,82.5,FINESTEERING,2269,271482.160,00000000,0096,769;2269,271482.160000000,23.26335320216,113.52480242655,27.1236,-1.7521,-3.2873,0.0078,-0.409086036,0.333136172,240.394979220,INS_SOLUTION_GOOD*9a3fdae0
#INSPVAA,ICOM1,0,82.5,FINESTEERING,2269,271482.168,00000000,009f,769;2269,271482.168000000,23.26335307562,113.52480216954,27.1237,-1.7511,-3.2881,0.0092,-0.410697408,0.332054357,240.394702254,INS_SOLUTION_GOOD*3a15eab5
#INSPVAA,ICOM1,0,82.5,FINESTEERING,2269,271482.176,00000000,00a6,769;2269,271482.176000000,23.26335294889,113.52480191258,27.1237,-1.7537,-3.2872,0.0085,-0.405958861,0.334146085,240.393360492,INS_SOLUTION_GOOD*5daaa737
#INSPVAA,ICOM1,0,82.5,FINESTEERING,2269,271482.184,00000000,00af,769;2269,271482.184000000,23.26335282217,113.52480165548,27.1238,-1.7544,-3.2885,0.0058,-0.403909893,0.326870863,240.394110552,INS_SOLUTION_GOOD*684f06d8
#INSPVAA,ICOM1,0,82.5,FINESTEERING,2269,271482.192,00000000,00b6,769;2269,271482.192000000,23.26335269543,113.52480139829,27.1239,-1.7549,-3.2899,0.0112,-0.405855997,0.330010734,240.394034995,INS_SOLUTION_GOOD*824d136f
#INSPVAA,ICOM1,0,82.5,FINESTEERING,2269,271482.200,00000000,00bf,769;2269,271482.200000000,23.26335256876,113.52480114125,27.1239,-1.7540,-3.2884,0.0059,-0.399259973,0.326068096,240.395254905,INS_SOLUTION_GOOD*e4aab8e3
#INSPVAA,ICOM1,0,82.5,FINESTEERING,2269,271482.208,00000000,00c6,769;2269,271482.208000000,23.26335244211,113.52480088401,27.1240,-1.7532,-3.2900,0.0053,-0.401285044,0.326715958,240.394686684,INS_SOLUTION_GOOD*0f62be15
#INSPVAA,ICOM1,0,82.5,FINESTEERING,2269,271482.216,00000000,00ce,769;2269,271482.216000000,23.26335231542,113.52480062683,27.1240,-1.7536,-3.2898,0.0076,-0.402649982,0.327645175,240.393704204,INS_SOLUTION_GOOD*37a49796
#INSPVAA,ICOM1,0,82.5,FINESTEERING,2269,271482.224,00000000,00d6,769;2269,271482.224000000,23.26335218868,113.52480036958,27.1241,-1.7545,-3.2904,0.0083,-0.394520843,0.329598259,240.395226235,INS_SOLUTION_GOOD*47ed038d
#INSPVAA,ICOM1,0,82.5,FINESTEERING,2269,271482.232,00000000,00df,769;2269,271482.232000000,23.26335206185,113.52480011228,27.1242,-1.7558,-3.2912,0.0079,-0.393556913,0.328538219,240.396061611,INS_SOLUTION_GOOD*48a6d230
#INSPVAA,ICOM1,0,82.5,FINESTEERING,2269,271482.240,00000000,00e7,769;2269,271482.240000000,23.26335193506,113.52479985509,27.1242,-1.7557,-3.2899,0.0066,-0.391779243,0.324348417,240.396753787,INS_SOLUTION_GOOD*2204acc3
#INSPVAA,ICOM1,0,82.5,FINESTEERING,2269,271482.248,00000000,00ef,769;2269,271482.248000000,23.26335180825,113.52479959783,27.1243,-1.7557,-3.2903,0.0053,-0.386485532,0.326130297,240.397474365,INS_SOLUTION_GOOD*48cc5eeb
#INSPVAA,ICOM1,0,82.5,FINESTEERING,2269,271482.256,00000000,00f6,769;2269,271482.256000000,23.26335168151,113.52479934048,27.1243,-1.7548,-3.2916,0.0058,-0.387138914,0.324765338,240.397937238,INS_SOLUTION_GOOD*71da5d33
#INSPVAA,ICOM1,0,82.5,FINESTEERING,2269,271482.264,00000000,00fe,769;2269,271482.264000000,23.26335155478,113.52479908307,27.1244,-1.7542,-3.2926,0.0060,-0.387959450,0.327563539,240.398092496,INS_SOLUTION_GOOD*151195b5
#INSPVAA,ICOM1,0,82.5,FINESTEERING,2269,271482.272,00000000,0107,769;2269,271482.272000000,23.26335142798,113.52479882579,27.1244,-1.7551,-3.2912,0.0034,-0.384745913,0.330881776,240.397746614,INS_SOLUTION_GOOD*e04772c9
#INSPVAA,ICOM1,0,82.5,FINESTEERING,2269,271482.280,00000000,010e,769;2269,271482.280000000,23.26335130122,113.52479856844,27.1244,-1.7549,-3.2915,0.0034,-0.382362778,0.330263090,240.399267844,INS_SOLUTION_GOOD*5971fda6
#INSPVAA,ICOM1,0,82.5,FINESTEERING,2269,271482.288,00000000,0116,769;2269,271482.288000000,23.26335117431,113.52479831106,27.1244,-1.7567,-3.2919,0.0032,-0.377665786,0.333468443,240.401290187,INS_SOLUTION_GOOD*021d6761
#INSPVAA,ICOM1,0,82.5,FINESTEERING,2269,271482.296,00000000,011e,769;2269,271482.296000000,23.26335104435,113.52479805719,27.1247,-1.7562,-3.2922,0.0044,-0.377315521,0.336145148,240.402065907,INS_SOLUTION_GOOD*2e72af74
#INSPVAA,ICOM1,0,82.5,FINESTEERING,2269,271482.304,00000000,0126,769;2269,271482.304000000,23.26335091614,113.52479780143,27.1248,-1.7547,-3.2925,0.0029,-0.376655854,0.336023741,240.403159516,INS_SOLUTION_GOOD*4b507199
#INSPVAA,ICOM1,0,82.5,FINESTEERING,2269,271482.312,00000000,012e,769;2269,271482.312000000,23.26335078789,113.52479754567,27.1249,-1.7548,-3.2924,0.0020,-0.380570494,0.341200894,240.402835289,INS_SOLUTION_GOOD*f6bed4ae
#INSPVAA,ICOM1,0,82.5,FINESTEERING,2269,271482.320,00000000,0136,769;2269,271482.320000000,23.26335065959,113.52479728989,27.1250,-1.7556,-3.2925,0.0053,-0.372726592,0.342314653,240.404065859,INS_SOLUTION_GOOD*84870215
#INSPVAA,ICOM1,0,82.5,FINESTEERING,2269,271482.328,00000000,013e,769;2269,271482.328000000,23.26335053121,113.52479703420,27.1251,-1.7570,-3.2914,0.0038,-0.368640333,0.347128009,240.405254792,INS_SOLUTION_GOOD*1fbb733a
#INSPVAA,ICOM1,0,82.5,FINESTEERING,2269,271482.336,00000000,014e,769;2269,271482.336000000,23.26335040287,113.52479677843,27.1253,-1.7569,-3.2919,0.0033,-0.372246526,0.345100859,240.406261564,INS_SOLUTION_GOOD*81f47214
#INSPVAA,ICOM1,0,82.5,FINESTEERING,2269,271482.344,00000000,0156,769;2269,271482.344000000,23.26335027452,113.52479652269,27.1254,-1.7564,-3.2919,0.0048,-0.370067776,0.347907931,240.407194315,INS_SOLUTION_GOOD*22062d5a
#INSPVAA,ICOM1,0,82.5,FINESTEERING,2269,271482.352,00000000,0156,769;2269,271482.352000000,23.26335014621,113.52479626694,27.1255,-1.7559,-3.2918,0.0062,-0.368186828,0.350455673,240.408135043,INS_SOLUTION_GOOD*60cdcc25
#INSPVAA,ICOM1,0,82.5,FINESTEERING,2269,271482.360,00000000,015e,769;2269,271482.360000000,23.26335001797,113.52479601132,27.1256,-1.7550,-3.2903,0.0021,-0.367266032,0.356775512,240.409203315,INS_SOLUTION_GOOD*53d80172
#INSPVAA,ICOM1,0,82.5,FINESTEERING,2269,271482.368,00000000,0166,769;2269,271482.368000000,23.26334988960,113.52479575557,27.1257,-1.7565,-3.2913,0.0037,-0.368859986,0.355191527,240.409502316,INS_SOLUTION_GOOD*7b7a109e
#INSPVAA,ICOM1,0,82.5,FINESTEERING,2269,271482.376,00000000,016e,769;2269,271482.376000000,23.26334976120,113.52479549978,27.1259,-1.7576,-3.2922,0.0095,-0.370161794,0.358775831,240.410326752,INS_SOLUTION_GOOD*098846fa
#INSPVAA,ICOM1,0,82.5,FINESTEERING,2269,271482.384,00000000,0176,769;2269,271482.384000000,23.26334963288,113.52479524416,27.1260,-1.7568,-3.2905,0.0065,-0.361529430,0.354982096,240.411661832,INS_SOLUTION_GOOD*e6939d32
#INSPVAA,ICOM1,0,82.5,FINESTEERING,2269,271482.392,00000000,017e,769;2269,271482.392000000,23.26334950463,113.52479498845,27.1262,-1.7555,-3.2908,0.0039,-0.366925439,0.356816440,240.413623252,INS_SOLUTION_GOOD*cec11706
#INSPVAA,ICOM1,0,82.5,FINESTEERING,2269,271482.400,00000000,0186,769;2269,271482.400000000,23.26334937639,113.52479473287,27.1263,-1.7551,-3.2895,0.0027,-0.366892822,0.355467288,240.412972970,INS_SOLUTION_GOOD*52087322
#INSPVAA,ICOM1,0,82.5,FINESTEERING,2269,271482.408,00000000,018e,769;2269,271482.408000000,23.26334924820,113.52479447712,27.1264,-1.7544,-3.2910,0.0083,-0.369818536,0.364493804,240.413145276,INS_SOLUTION_GOOD*dcc39a58
#INSPVAA,ICOM1,0,82.5,FINESTEERING,2269,271482.416,00000000,0196,769;2269,271482.416000000,23.26334911995,113.52479422147,27.1266,-1.7552,-3.2906,0.0078,-0.367556517,0.364879716,240.413747214,INS_SOLUTION_GOOD*cfed0a90
#INSPVAA,ICOM1,0,82.5,FINESTEERING,2269,271482.424,00000000,019e,769;2269,271482.424000000,23.26334899178,113.52479396575,27.1267,-1.7546,-3.2910,0.0067,-0.367154467,0.365906540,240.414400499,INS_SOLUTION_GOOD*14860623
#INSPVAA,ICOM1,0,82.5,FINESTEERING,2269,271482.432,00000000,01a6,769;2269,271482.432000000,23.26334886359,113.52479370999,27.1269,-1.7546,-3.2917,0.0114,-0.366790866,0.363209500,240.414588237,INS_SOLUTION_GOOD*c27f74ac
#INSPVAA,ICOM1,0,82.5,FINESTEERING,2269,271482.440,00000000,01ae,769;2269,271482.440000000,23.26334873538,113.52479345427,27.1271,-1.7550,-3.2912,0.0117,-0.367172230,0.363600440,240.414827172,INS_SOLUTION_GOOD*79e8c3b2
#INSPVAA,ICOM1,0,81.4,FINESTEERING,2269,271482.448,00000000,01b7,769;2269,271482.448000000,23.26334860732,113.52479319861,27.1272,-1.7533,-3.2903,0.0094,-0.365500376,0.358434571,240.414707924,INS_SOLUTION_GOOD*c140be93
#INSPVAA,ICOM1,0,81.4,FINESTEERING,2269,271482.456,00000000,01bf,769;2269,271482.456000000,23.26334847927,113.52479294291,27.1274,-1.7526,-3.2904,0.0121,-0.372115459,0.363770112,240.414311552,INS_SOLUTION_GOOD*c5c6bf5c
#INSPVAA,ICOM1,0,81.4,FINESTEERING,2269,271482.464,00000000,01c7,769;2269,271482.464000000,23.26334835118,113.52479268740,27.1276,-1.7532,-3.2881,0.0123,-0.367418679,0.363173654,240.413175581,INS_SOLUTION_GOOD*5c3fba44
#INSPVAA,ICOM1,0,81.4,FINESTEERING,2269,271482.472,00000000,01cf,769;2269,271482.472000000,23.26334822307,113.52479243175,27.1278,-1.7537,-3.2893,0.0133,-0.369529583,0.364900200,240.413700241,INS_SOLUTION_GOOD*9a63289a
#INSPVAA,ICOM1,0,81.4,FINESTEERING,2269,271482.480,00000000,01d7,769;2269,271482.480000000,23.26334809496,113.52479217607,27.1280,-1.7538,-3.2901,0.0137,-0.370253393,0.359655317,240.414567496,INS_SOLUTION_GOOD*b57889fa
#INSPVAA,ICOM1,0,81.4,FINESTEERING,2269,271482.488,00000000,01df,769;2269,271482.488000000,23.26334796683,113.52479192047,27.1282,-1.7543,-3.2895,0.0153,-0.370066158,0.357484742,240.413217079,INS_SOLUTION_GOOD*70f1b532
#INSPVAA,ICOM1,0,81.4,FINESTEERING,2269,271482.496,00000000,01e7,769;2269,271482.496000000,23.26334783882,113.52479166507,27.1284,-1.7529,-3.2867,0.0108,-0.372384451,0.355818295,240.412800118,INS_SOLUTION_GOOD*d8c595e5
#INSPVAA,ICOM1,0,81.4,FINESTEERING,2269,271482.504,00000000,01ef,769;2269,271482.504000000,23.26334771073,113.52479140959,27.1286,-1.7533,-3.2869,0.0118,-0.371786682,0.357013499,240.413200702,INS_SOLUTION_GOOD*80da28d8
#INSPVAA,ICOM1,0,81.4,FINESTEERING,2269,271482.512,00000000,01f7,769;2269,271482.512000000,23.26334758259,113.52479115406,27.1288,-1.7544,-3.2876,0.0144,-0.370463069,0.358342097,240.411726934,INS_SOLUTION_GOOD*187ef33a
#INSPVAA,ICOM1,0,81.4,FINESTEERING,2269,271482.520,00000000,01ff,769;2269,271482.520000000,23.26334745446,113.52479089862,27.1290,-1.7545,-3.2870,0.0147,-0.371040737,0.359294780,240.411680653,INS_SOLUTION_GOOD*dda1c5fb
#INSPVAA,ICOM1,0,81.4,FINESTEERING,2269,271482.528,00000000,0207,769;2269,271482.528000000,23.26334732621,113.52479064312,27.1291,-1.7561,-3.2875,0.0106,-0.374395650,0.353753326,240.411581337,INS_SOLUTION_GOOD*67b0771c
#INSPVAA,ICOM1,0,81.4,FINESTEERING,2269,271482.536,00000000,020f,769;2269,271482.536000000,23.26334719794,113.52479038768,27.1293,-1.7568,-3.2870,0.0094,-0.377145429,0.350287281,240.412233519,INS_SOLUTION_GOOD*9acc360b
#INSPVAA,ICOM1,0,81.4,FINESTEERING,2269,271482.544,00000000,0217,769;2269,271482.544000000,23.26334706953,113.52479013222,27.1295,-1.7587,-3.2870,0.0097,-0.375823382,0.354579919,240.412913778,INS_SOLUTION_GOOD*8d57d628
#INSPVAA,ICOM1,0,81.4,FINESTEERING,2269,271482.552,00000000,021f,769;2269,271482.552000000,23.26334694142,113.52478987698,27.1296,-1.7551,-3.2843,0.0060,-0.380684229,0.353773112,240.413648926,INS_SOLUTION_GOOD*4a7ece13
#INSPVAA,ICOM1,0,81.4,FINESTEERING,2269,271482.560,00000000,0227,769;2269,271482.560000000,23.26334681321,113.52478962163,27.1298,-1.7550,-3.2848,0.0081,-0.388128384,0.360953740,240.413125718,INS_SOLUTION_GOOD*4e781eb7
#INSPVAA,ICOM1,0,81.4,FINESTEERING,2269,271482.568,00000000,022f,769;2269,271482.568000000,23.26334668486,113.52478936653,27.1299,-1.7571,-3.2823,0.0070,-0.388853819,0.361376490,240.412340960,INS_SOLUTION_GOOD*c2a43d83
#INSPVAA,ICOM1,0,81.4,FINESTEERING,2269,271482.576,00000000,0237,769;2269,271482.576000000,23.26334655659,113.52478911119,27.1301,-1.7569,-3.2845,0.0091,-0.394115002,0.360847450,240.413002557,INS_SOLUTION_GOOD*59d85b1d
#INSPVAA,ICOM1,0,81.4,FINESTEERING,2269,271482.584,00000000,023f,769;2269,271482.584000000,23.26334642822,113.52478885608,27.1302,-1.7580,-3.2826,0.0105,-0.395663283,0.361864372,240.413933881,INS_SOLUTION_GOOD*4a4fb04a
#INSPVAA,ICOM1,0,81.4,FINESTEERING,2269,271482.592,00000000,0247,769;2269,271482.592000000,23.26334629993,113.52478860096,27.1304,-1.7573,-3.2821,0.0076,-0.397392155,0.359430363,240.414002922,INS_SOLUTION_GOOD*8025493e
#INSPVAA,ICOM1,0,81.4,FINESTEERING,2269,271482.600,00000000,0256,769;2269,271482.600000000,23.26334617166,113.52478834597,27.1305,-1.7571,-3.2801,0.0098,-0.401054873,0.363551951,240.413547567,INS_SOLUTION_GOOD*da57888d
#INSPVAA,ICOM1,0,81.4,FINESTEERING,2269,271482.608,00000000,0256,769;2269,271482.608000000,23.26334604335,113.52478809109,27.1307,-1.7574,-3.2786,0.0115,-0.402750985,0.365643914,240.413502015,INS_SOLUTION_GOOD*da2518bf
#INSPVAA,ICOM1,0,81.4,FINESTEERING,2269,271482.616,00000000,025e,769;2269,271482.616000000,23.26334591510,113.52478783611,27.1309,-1.7566,-3.2796,0.0120,-0.403221595,0.370441591,240.414787593,INS_SOLUTION_GOOD*02a47c12
#INSPVAA,ICOM1,0,81.4,FINESTEERING,2269,271482.624,00000000,0267,769;2269,271482.624000000,23.26334578676,113.52478758124,27.1311,-1.7576,-3.2789,0.0143,-0.403770323,0.369750451,240.415197934,INS_SOLUTION_GOOD*8cdbbfad
#INSPVAA,ICOM1,0,81.4,FINESTEERING,2269,271482.632,00000000,026f,769;2269,271482.632000000,23.26334565840,113.52478732635,27.1313,-1.7582,-3.2790,0.0158,-0.405697850,0.368844833,240.415046372,INS_SOLUTION_GOOD*6b3f42ee
#INSPVAA,ICOM1,0,81.4,FINESTEERING,2269,271482.640,00000000,0277,769;2269,271482.640000000,23.26334553011,113.52478707148,27.1315,-1.7573,-3.2789,0.0162,-0.405822633,0.364901610,240.415808494,INS_SOLUTION_GOOD*e3c2011c
#INSPVAA,ICOM1,0,81.4,FINESTEERING,2269,271482.648,00000000,027f,769;2269,271482.648000000,23.26334540175,113.52478681680,27.1317,-1.7579,-3.2765,0.0173,-0.408323753,0.369307658,240.415954999,INS_SOLUTION_GOOD*21ab5fca
#INSPVAA,ICOM1,0,81.4,FINESTEERING,2269,271482.656,00000000,0287,769;2269,271482.656000000,23.26334527353,113.52478656233,27.1320,-1.7563,-3.2733,0.0187,-0.404028975,0.369429472,240.417211031,INS_SOLUTION_GOOD*3b9c8b56
#INSPVAA,ICOM1,0,81.4,FINESTEERING,2269,271482.664,00000000,028e,769;2269,271482.664000000,23.26334514536,113.52478630760,27.1322,-1.7553,-3.2757,0.0213,-0.407748241,0.372226065,240.417795038,INS_SOLUTION_GOOD*fa8f40d4
#INSPVAA,ICOM1,0,81.4,FINESTEERING,2269,271482.672,00000000,029e,769;2269,271482.672000000,23.26334501724,113.52478605308,27.1325,-1.7541,-3.2746,0.0237,-0.404299835,0.367013147,240.417629411,INS_SOLUTION_GOOD*87e83b20
#INSPVAA,ICOM1,0,81.4,FINESTEERING,2269,271482.680,00000000,029e,769;2269,271482.680000000,23.26334488922,113.52478579855,27.1328,-1.7528,-3.2743,0.0251,-0.402892655,0.364362086,240.417848642,INS_SOLUTION_GOOD*dfec2bf0
#INSPVAA,ICOM1,0,81.4,FINESTEERING,2269,271482.688,00000000,02a6,769;2269,271482.688000000,23.26334476122,113.52478554412,27.1331,-1.7527,-3.2729,0.0249,-0.407194128,0.365385583,240.418001143,INS_SOLUTION_GOOD*ad4fdfb8
#INSPVAA,ICOM1,0,81.4,FINESTEERING,2269,271482.696,00000000,02ae,769;2269,271482.696000000,23.26334463332,113.52478528972,27.1333,-1.7515,-3.2723,0.0218,-0.402754370,0.355167254,240.417858342,INS_SOLUTION_GOOD*705b6e2a
#INSPVAA,ICOM1,0,81.4,FINESTEERING,2269,271482.704,00000000,02b7,769;2269,271482.704000000,23.26334450555,113.52478503521,27.1336,-1.7498,-3.2736,0.0277,-0.409853625,0.360604090,240.417752404,INS_SOLUTION_GOOD*694a25a6
#INSPVAA,ICOM1,0,81.4,FINESTEERING,2269,271482.712,00000000,02bf,769;2269,271482.712000000,23.26334437785,113.52478478092,27.1339,-1.7485,-3.2714,0.0239,-0.400397194,0.358593096,240.417666302,INS_SOLUTION_GOOD*201bae09
#INSPVAA,ICOM1,0,81.4,FINESTEERING,2269,271482.720,00000000,02cf,769;2269,271482.720000000,23.26334425035,113.52478452650,27.1342,-1.7463,-3.2726,0.0245,-0.403943267,0.356089679,240.417271516,INS_SOLUTION_GOOD*aff83346
#INSPVAA,ICOM1,0,81.4,FINESTEERING,2269,271482.728,00000000,02cf,769;2269,271482.728000000,23.26334412292,113.52478427208,27.1344,-1.7450,-3.2730,0.0254,-0.405394981,0.353748785,240.416767606,INS_SOLUTION_GOOD*e0d9fd05
#INSPVAA,ICOM1,0,81.4,FINESTEERING,2269,271482.736,00000000,02d7,769;2269,271482.736000000,23.26334399545,113.52478401763,27.1348,-1.7454,-3.2732,0.0277,-0.400147096,0.350888749,240.415927232,INS_SOLUTION_GOOD*de4dba5c
#INSPVAA,ICOM1,0,81.4,FINESTEERING,2269,271482.744,00000000,02df,769;2269,271482.744000000,23.26334386816,113.52478376340,27.1350,-1.7434,-3.2706,0.0231,-0.400954193,0.345164140,240.415697874,INS_SOLUTION_GOOD*b6cab1ec
#INSPVAA,ICOM1,0,81.4,FINESTEERING,2269,271482.752,00000000,02ef,769;2269,271482.752000000,23.26334374095,113.52478350910,27.1353,-1.7416,-3.2708,0.0233,-0.398303470,0.344322047,240.415935837,INS_SOLUTION_GOOD*1282bc0f
#INSPVAA,ICOM1,0,81.4,FINESTEERING,2269,271482.760,00000000,02f7,769;2269,271482.760000000,23.26334361388,113.52478325481,27.1356,-1.7399,-3.2707,0.0239,-0.396607364,0.343746141,240.414888681,INS_SOLUTION_GOOD*f421c78a
#INSPVAA,ICOM1,0,81.4,FINESTEERING,2269,271482.768,00000000,02f7,769;2269,271482.768000000,23.26334348693,113.52478300054,27.1358,-1.7382,-3.2706,0.0245,-0.394759371,0.343011933,240.413946449,INS_SOLUTION_GOOD*7eeb9f7a
#INSPVAA,ICOM1,0,81.4,FINESTEERING,2269,271482.776,00000000,02ff,769;2269,271482.776000000,23.26334335988,113.52478274627,27.1361,-1.7395,-3.2705,0.0230,-0.395755882,0.339001784,240.412853703,INS_SOLUTION_GOOD*772dae54
#INSPVAA,ICOM1,0,81.4,FINESTEERING,2269,271482.784,00000000,0307,769;2269,271482.784000000,23.26334323284,113.52478249220,27.1364,-1.7402,-3.2680,0.0218,-0.396834419,0.335744199,240.411846503,INS_SOLUTION_GOOD*f01ccdd4
#INSPVAA,ICOM1,0,81.4,FINESTEERING,2269,271482.792,00000000,030f,769;2269,271482.792000000,23.26334310589,113.52478223810,27.1366,-1.7393,-3.2675,0.0207,-0.396546707,0.332288154,240.412636032,INS_SOLUTION_GOOD*953b1525
#INSPVAA,ICOM1,0,81.4,FINESTEERING,2269,271482.800,00000000,0317,769;2269,271482.800000000,23.26334297904,113.52478198398,27.1369,-1.7378,-3.2680,0.0176,-0.389685462,0.328614685,240.412681377,INS_SOLUTION_GOOD*61180d49
#INSPVAA,ICOM1,0,81.4,FINESTEERING,2269,271482.808,00000000,031f,769;2269,271482.808000000,23.26334285226,113.52478172997,27.1371,-1.7364,-3.2670,0.0158,-0.392502490,0.328564565,240.411795776,INS_SOLUTION_GOOD*894ce5b3
#INSPVAA,ICOM1,0,81.4,FINESTEERING,2269,271482.816,00000000,0327,769;2269,271482.816000000,23.26334272546,113.52478147606,27.1373,-1.7367,-3.2654,0.0139,-0.391084565,0.328211799,240.410687074,INS_SOLUTION_GOOD*b058e07d
#INSPVAA,ICOM1,0,81.4,FINESTEERING,2269,271482.824,00000000,032f,769;2269,271482.824000000,23.26334259873,113.52478122211,27.1375,-1.7360,-3.2655,0.0104,-0.393936684,0.330479441,240.411135140,INS_SOLUTION_GOOD*776f96b8
#INSPVAA,ICOM1,0,81.4,FINESTEERING,2269,271482.832,00000000,0337,769;2269,271482.832000000,23.26334247200,113.52478096821,27.1376,-1.7359,-3.2652,0.0094,-0.393349619,0.328489863,240.410421867,INS_SOLUTION_GOOD*45cab773
#INSPVAA,ICOM1,0,81.4,FINESTEERING,2269,271482.840,00000000,033f,769;2269,271482.840000000,23.26334234521,113.52478071443,27.1378,-1.7370,-3.2637,0.0085,-0.390487248,0.330109708,240.410242334,INS_SOLUTION_GOOD*51dc1e9c
#INSPVAA,ICOM1,0,81.4,FINESTEERING,2269,271482.848,00000000,0347,769;2269,271482.848000000,23.26334221841,113.52478046055,27.1379,-1.7374,-3.2646,0.0060,-0.386636334,0.328463055,240.410100072,INS_SOLUTION_GOOD*a64538e4
#INSPVAA,ICOM1,0,81.4,FINESTEERING,2269,271482.856,00000000,034f,769;2269,271482.856000000,23.26334209165,113.52478020689,27.1381,-1.7371,-3.2623,0.0054,-0.385533473,0.326613876,240.410143727,INS_SOLUTION_GOOD*9a8aee20
#INSPVAA,ICOM1,0,81.4,FINESTEERING,2269,271482.864,00000000,0357,769;2269,271482.864000000,23.26334196496,113.52477995341,27.1382,-1.7359,-3.2595,0.0017,-0.382273640,0.329827260,240.410038937,INS_SOLUTION_GOOD*e764b0ac
#INSPVAA,ICOM1,0,81.4,FINESTEERING,2269,271482.872,00000000,035f,769;2269,271482.872000000,23.26334183832,113.52477969996,27.1382,-1.7350,-3.2584,-0.0011,-0.377472693,0.331614266,240.409539917,INS_SOLUTION_GOOD*4c778ca1
#INSPVAA,ICOM1,0,81.4,FINESTEERING,2269,271482.880,00000000,0367,769;2269,271482.880000000,23.26334171156,113.52477944674,27.1383,-1.7365,-3.2557,0.0003,-0.375536815,0.332278404,240.409474842,INS_SOLUTION_GOOD*c6ae7467
#INSPVAA,ICOM1,0,81.4,FINESTEERING,2269,271482.888,00000000,036f,769;2269,271482.888000000,23.26334158486,113.52477919365,27.1385,-1.7362,-3.2538,0.0031,-0.371286928,0.336536152,240.410729236,INS_SOLUTION_GOOD*58e334ef
#INSPVAA,ICOM1,0,81.4,FINESTEERING,2269,271482.896,00000000,0376,769;2269,271482.896000000,23.26334145827,113.52477894098,27.1385,-1.7348,-3.2486,0.0016,-0.362687641,0.336069511,240.411917984,INS_SOLUTION_GOOD*12483ad6
#INSPVAA,ICOM1,0,81.4,FINESTEERING,2269,271482.904,00000000,0386,769;2269,271482.904000000,23.26334133184,113.52477868831,27.1386,-1.7317,-3.2484,0.0017,-0.363113781,0.335753631,240.413040458,INS_SOLUTION_GOOD*95659d7c
#INSPVAA,ICOM1,0,81.4,FINESTEERING,2269,271482.912,00000000,0386,769;2269,271482.912000000,23.26334120555,113.52477843575,27.1387,-1.7296,-3.2473,0.0029,-0.361364924,0.336404590,240.413672650,INS_SOLUTION_GOOD*379792c8
#INSPVAA,ICOM1,0,81.4,FINESTEERING,2269,271482.920,00000000,038f,769;2269,271482.920000000,23.26334107925,113.52477818340,27.1389,-1.7295,-3.2447,0.0070,-0.356925585,0.338098968,240.413974591,INS_SOLUTION_GOOD*50f7dc8d
#INSPVAA,ICOM1,0,81.4,FINESTEERING,2269,271482.928,00000000,0396,769;2269,271482.928000000,23.26334095327,113.52477793142,27.1390,-1.7259,-3.2396,0.0016,-0.355361394,0.337013250,240.414737403,INS_SOLUTION_GOOD*66b14cff
#INSPVAA,ICOM1,0,81.4,FINESTEERING,2269,271482.936,00000000,039f,769;2269,271482.936000000,23.26334082735,113.52477767965,27.1391,-1.7243,-3.2360,0.0043,-0.352571872,0.337734535,240.416174584,INS_SOLUTION_GOOD*eae56714
#INSPVAA,ICOM1,0,81.4,FINESTEERING,2269,271482.944,00000000,03a6,769;2269,271482.944000000,23.26334070157,113.52477742775,27.1392,-1.7227,-3.2372,0.0059,-0.354210385,0.334944242,240.416327813,INS_SOLUTION_GOOD*0ddb404e
#INSPVAA,ICOM1,0,81.4,FINESTEERING,2269,271482.952,00000000,03ae,769;2269,271482.952000000,23.26334057593,113.52477717606,27.1394,-1.7208,-3.2358,0.0115,-0.353281779,0.335627351,240.415512526,INS_SOLUTION_GOOD*28c14cbc
#INSPVAA,ICOM1,0,81.4,FINESTEERING,2269,271482.960,00000000,03b6,769;2269,271482.960000000,23.26334045038,113.52477692453,27.1395,-1.7196,-3.2338,0.0104,-0.352939178,0.333929629,240.416006027,INS_SOLUTION_GOOD*50460a9f
#INSPVAA,ICOM1,0,81.4,FINESTEERING,2269,271482.968,00000000,03bf,769;2269,271482.968000000,23.26334032491,113.52477667313,27.1397,-1.7186,-3.2319,0.0101,-0.356454752,0.333995162,240.416250200,INS_SOLUTION_GOOD*e2994b1b
#INSPVAA,ICOM1,0,81.4,FINESTEERING,2269,271482.976,00000000,03ce,769;2269,271482.976000000,23.26334019948,113.52477642191,27.1399,-1.7182,-3.2301,0.0141,-0.357994119,0.330653890,240.415059167,INS_SOLUTION_GOOD*e26747c5
#INSPVAA,ICOM1,0,81.4,FINESTEERING,2269,271482.984,00000000,03ce,769;2269,271482.984000000,23.26334007413,113.52477617074,27.1401,-1.7173,-3.2289,0.0166,-0.361098981,0.329586763,240.414575585,INS_SOLUTION_GOOD*c5c83c63
#INSPVAA,ICOM1,0,81.4,FINESTEERING,2269,271482.992,00000000,03d6,769;2269,271482.992000000,23.26333994880,113.52477591971,27.1403,-1.7171,-3.2273,0.0183,-0.361209787,0.324811722,240.414629078,INS_SOLUTION_GOOD*7a873275
#INSPVAA,ICOM1,0,81.4,FINESTEERING,2269,271483.000,00000000,03de,769;2269,271483.000000000,23.26333982355,113.52477566881,27.1405,-1.7163,-3.2254,0.0178,-0.360589275,0.321923152,240.414397582,INS_SOLUTION_GOOD*c900da5a
#INSPVAA,ICOM1,0,81.4,FINESTEERING,2269,271483.008,00000000,03e6,769;2269,271483.008000000,23.26333969956,113.52477541675,27.1407,-1.7160,-3.2233,0.0168,-0.359792415,0.318259661,240.414764190,INS_SOLUTION_GOOD*6cbb64cd
#INSPVAA,ICOM1,0,81.4,FINESTEERING,2269,271483.016,00000000,0006,769;2269,271483.016000000,23.26333957547,113.52477516468,27.1408,-1.7175,-3.2229,0.0184,-0.360142448,0.314529593,240.414065157,INS_SOLUTION_GOOD*db2cdcd6
#INSPVAA,ICOM1,0,81.4,FINESTEERING,2269,271483.024,00000000,000f,769;2269,271483.024000000,23.26333945161,113.52477491289,27.1410,-1.7152,-3.2201,0.0220,-0.363500199,0.313020953,240.413450848,INS_SOLUTION_GOOD*b30b0100
#INSPVAA,ICOM1,0,81.4,FINESTEERING,2269,271483.032,00000000,0017,769;2269,271483.032000000,23.26333932764,113.52477466127,27.1411,-1.7156,-3.2174,0.0181,-0.367087242,0.310887008,240.412579602,INS_SOLUTION_GOOD*4e859047
#INSPVAA,ICOM1,0,81.4,FINESTEERING,2269,271483.040,00000000,001f,769;2269,271483.040000000,23.26333920364,113.52477440975,27.1413,-1.7165,-3.2159,0.0213,-0.365456997,0.305204933,240.412127935,INS_SOLUTION_GOOD*a2d5f0c8
#INSPVAA,ICOM1,0,81.4,FINESTEERING,2269,271483.048,00000000,0027,769;2269,271483.048000000,23.26333907964,113.52477415817,27.1415,-1.7167,-3.2166,0.0274,-0.367650592,0.304409301,240.412240402,INS_SOLUTION_GOOD*e1c9041e
#INSPVAA,ICOM1,0,81.4,FINESTEERING,2269,271483.056,00000000,002f,769;2269,271483.056000000,23.26333895553,113.52477390697,27.1417,-1.7181,-3.2128,0.0261,-0.365721822,0.298902420,240.412018668,INS_SOLUTION_GOOD*41766891
#BESTPOSA,ICOM1,0,81.4,FINESTEERING,2269,271483.000,00000000,0001,769;SOL_COMPUTED,NARROW_INT,23.26333807502,113.52477325615,34.6313,-6.3554,WGS84,0.0104,0.0105,0.0234,"3973",1.000,0.055,55,25,25,25,00,00,30,37*9e03fe0f
#INSPVAA,ICOM1,0,81.4,FINESTEERING,2269,271483.064,00000000,0037,769;2269,271483.064000000,23.26333883157,113.52477365583,27.1419,-1.7166,-3.2111,0.0265,-0.370279126,0.292977948,240.412227389,INS_SOLUTION_GOOD*04d942f9
#INSPVAA,ICOM1,0,81.4,FINESTEERING,2269,271483.072,00000000,003e,769;2269,271483.072000000,23.26333870761,113.52477340476,27.1421,-1.7160,-3.2102,0.0282,-0.376082093,0.289083872,240.411287685,INS_SOLUTION_GOOD*5d24fcb0
#INSPVAA,ICOM1,0,81.4,FINESTEERING,2269,271483.080,00000000,0046,769;2269,271483.080000000,23.26333858353,113.52477315375,27.1424,-1.7174,-3.2097,0.0304,-0.373855453,0.283229361,240.410934538,INS_SOLUTION_GOOD*998bbb32
#INSPVAA,ICOM1,0,81.4,FINESTEERING,2269,271483.088,00000000,0056,769;2269,271483.088000000,23.26333845938,113.52477290310,27.1426,-1.7187,-3.2055,0.0295,-0.378046201,0.278420871,240.411242128,INS_SOLUTION_GOOD*49b225a2
#INSPVAA,ICOM1,0,81.4,FINESTEERING,2269,271483.096,00000000,0056,769;2269,271483.096000000,23.26333833519,113.52477265258,27.1428,-1.7195,-3.2029,0.0296,-0.381165625,0.273375552,240.411483576,INS_SOLUTION_GOOD*ca7e7dae
#INSPVAA,ICOM1,0,81.4,FINESTEERING,2269,271483.104,00000000,005f,769;2269,271483.104000000,23.26333821112,113.52477240219,27.1431,-1.7181,-3.2013,0.0270,-0.381620083,0.265149057,240.412037023,INS_SOLUTION_GOOD*17d1e8ed
#INSPVAA,ICOM1,0,81.4,FINESTEERING,2269,271483.112,00000000,0067,769;2269,271483.112000000,23.26333808717,113.52477215194,27.1433,-1.7159,-3.1997,0.0272,-0.387645557,0.262840296,240.411941729,INS_SOLUTION_GOOD*c54e8602
#INSPVAA,ICOM1,0,81.4,FINESTEERING,2269,271483.120,00000000,006f,769;2269,271483.120000000,23.26333796315,113.52477190186,27.1435,-1.7163,-3.1976,0.0242,-0.384005033,0.257928901,240.411479797,INS_SOLUTION_GOOD*a78213ff
#INSPVAA,ICOM1,0,81.4,FINESTEERING,2269,271483.128,00000000,0077,769;2269,271483.128000000,23.26333783911,113.52477165204,27.1437,-1.7169,-3.1944,0.0255,-0.385578449,0.258637468,240.411841602,INS_SOLUTION_GOOD*db08a4b0
#INSPVAA,ICOM1,0,81.4,FINESTEERING,2269,271483.136,00000000,007f,769;2269,271483.136000000,23.26333771511,113.52477140254,27.1439,-1.7166,-3.1901,0.0239,-0.386278945,0.252508544,240.413318944,INS_SOLUTION_GOOD*23174f7a
#INSPVAA,ICOM1,0,81.4,FINESTEERING,2269,271483.144,00000000,0086,769;2269,271483.144000000,23.26333759118,113.52477115311,27.1440,-1.7156,-3.1885,0.0217,-0.388639277,0.249138671,240.414749106,INS_SOLUTION_GOOD*956954dd
#INSPVAA,ICOM1,0,81.4,FINESTEERING,2269,271483.152,00000000,008f,769;2269,271483.152000000,23.26333746727,113.52477090373,27.1443,-1.7151,-3.1882,0.0253,-0.388707027,0.246187729,240.415619820,INS_SOLUTION_GOOD*021f37f3
#INSPVAA,ICOM1,0,81.4,FINESTEERING,2269,271483.160,00000000,0096,769;2269,271483.160000000,23.26333734351,113.52477065462,27.1444,-1.7130,-3.1856,0.0209,-0.386105665,0.240718040,240.417114409,INS_SOLUTION_GOOD*59900a5b
#INSPVAA,ICOM1,0,81.4,FINESTEERING,2269,271483.168,00000000,009f,769;2269,271483.168000000,23.26333721991,113.52477040570,27.1446,-1.7105,-3.1828,0.0203,-0.387291582,0.241205961,240.418619263,INS_SOLUTION_GOOD*12457295
#INSPVAA,ICOM1,0,81.4,FINESTEERING,2269,271483.176,00000000,00a6,769;2269,271483.176000000,23.26333709633,113.52477015710,27.1448,-1.7098,-3.1786,0.0207,-0.388040329,0.238395297,240.419282962,INS_SOLUTION_GOOD*46fbaafe
#INSPVAA,ICOM1,0,81.4,FINESTEERING,2269,271483.184,00000000,00af,769;2269,271483.184000000,23.26333697297,113.52476990852,27.1450,-1.7072,-3.1777,0.0237,-0.387914191,0.237935926,240.420221329,INS_SOLUTION_GOOD*e258210f
#INSPVAA,ICOM1,0,81.4,FINESTEERING,2269,271483.192,00000000,00b6,769;2269,271483.192000000,23.26333684960,113.52476966006,27.1451,-1.7068,-3.1767,0.0242,-0.388806644,0.236904942,240.421174842,INS_SOLUTION_GOOD*b993d0d1
#INSPVAA,ICOM1,0,81.4,FINESTEERING,2269,271483.200,00000000,00be,769;2269,271483.200000000,23.26333672647,113.52476941193,27.1453,-1.7041,-3.1730,0.0227,-0.383702740,0.229254345,240.422501247,INS_SOLUTION_GOOD*a51168ae
#INSPVAA,ICOM1,0,81.4,FINESTEERING,2269,271483.208,00000000,00c6,769;2269,271483.208000000,23.26333660350,113.52476916388,27.1455,-1.7014,-3.1713,0.0232,-0.384799089,0.225344610,240.423602594,INS_SOLUTION_GOOD*76f9aa45
#INSPVAA,ICOM1,0,81.4,FINESTEERING,2269,271483.216,00000000,00ce,769;2269,271483.216000000,23.26333648072,113.52476891597,27.1457,-1.6986,-3.1697,0.0228,-0.386127767,0.224932322,240.424728015,INS_SOLUTION_GOOD*a7967361
#INSPVAA,ICOM1,0,81.4,FINESTEERING,2269,271483.224,00000000,00d6,769;2269,271483.224000000,23.26333635810,113.52476866822,27.1458,-1.6963,-3.1679,0.0174,-0.383560840,0.219968896,240.424944911,INS_SOLUTION_GOOD*e7754a99
#INSPVAA,ICOM1,0,81.4,FINESTEERING,2269,271483.232,00000000,00df,769;2269,271483.232000000,23.26333623545,113.52476842069,27.1460,-1.6966,-3.1651,0.0199,-0.383416483,0.223814532,240.424508312,INS_SOLUTION_GOOD*923103b2
#INSPVAA,ICOM1,0,81.4,FINESTEERING,2269,271483.240,00000000,00e7,769;2269,271483.240000000,23.26333611311,113.52476817319,27.1461,-1.6931,-3.1645,0.0177,-0.385559462,0.222808207,240.426144819,INS_SOLUTION_GOOD*a00df13b
#INSPVAA,ICOM1,0,81.4,FINESTEERING,2269,271483.248,00000000,00ee,769;2269,271483.248000000,23.26333599089,113.52476792590,27.1463,-1.6908,-3.1622,0.0147,-0.385722055,0.220491231,240.427095481,INS_SOLUTION_GOOD*66dfb6d3
#INSPVAA,ICOM1,0,81.4,FINESTEERING,2269,271483.256,00000000,00f6,769;2269,271483.256000000,23.26333586877,113.52476767879,27.1464,-1.6895,-3.1597,0.0135,-0.380493163,0.218850902,240.427096031,INS_SOLUTION_GOOD*99d2a6e7
#INSPVAA,ICOM1,0,81.4,FINESTEERING,2269,271483.264,00000000,00fe,769;2269,271483.264000000,23.26333574705,113.52476743157,27.1465,-1.6844,-3.1608,0.0129,-0.384701002,0.220666679,240.428025630,INS_SOLUTION_GOOD*bd887ef3
#INSPVAA,ICOM1,0,81.4,FINESTEERING,2269,271483.272,00000000,0106,769;2269,271483.272000000,23.26333562524,113.52476718456,27.1466,-1.6844,-3.1590,0.0121,-0.381484274,0.222563137,240.427206513,INS_SOLUTION_GOOD*a9c8e3cb
#INSPVAA,ICOM1,0,81.4,FINESTEERING,2269,271483.280,00000000,010e,769;2269,271483.280000000,23.26333550377,113.52476693769,27.1467,-1.6808,-3.1570,0.0097,-0.383384404,0.223005348,240.426908344,INS_SOLUTION_GOOD*189faf1b
#INSPVAA,ICOM1,0,81.4,FINESTEERING,2269,271483.288,00000000,0116,769;2269,271483.288000000,23.26333538236,113.52476669099,27.1468,-1.6795,-3.1547,0.0108,-0.383694410,0.224326061,240.426420558,INS_SOLUTION_GOOD*bf5e916b
#INSPVAA,ICOM1,0,81.4,FINESTEERING,2269,271483.296,00000000,011e,769;2269,271483.296000000,23.26333526109,113.52476644447,27.1469,-1.6777,-3.1522,0.0115,-0.379899462,0.226992555,240.426102690,INS_SOLUTION_GOOD*f710e062
#INSPVAA,ICOM1,0,81.4,FINESTEERING,2269,271483.304,00000000,0126,769;2269,271483.304000000,23.26333513981,113.52476619794,27.1470,-1.6778,-3.1519,0.0157,-0.375421536,0.228710183,240.425948571,INS_SOLUTION_GOOD*67c6639d
#INSPVAA,ICOM1,0,81.4,FINESTEERING,2269,271483.312,00000000,012e,769;2269,271483.312000000,23.26333501881,113.52476595172,27.1471,-1.6748,-3.1487,0.0135,-0.374105860,0.228524669,240.426194165,INS_SOLUTION_GOOD*6418c90e
#INSPVAA,ICOM1,0,81.4,FINESTEERING,2269,271483.320,00000000,0136,769;2269,271483.320000000,23.26333489276,113.52476570948,27.1473,-1.6723,-3.1470,0.0121,-0.374799574,0.225275276,240.425930778,INS_SOLUTION_GOOD*86d36162
#INSPVAA,ICOM1,0,81.4,FINESTEERING,2269,271483.328,00000000,013e,769;2269,271483.328000000,23.26333476944,113.52476546530,27.1474,-1.6724,-3.1455,0.0175,-0.375698905,0.229810144,240.424206343,INS_SOLUTION_GOOD*de95c57e
#INSPVAA,ICOM1,0,81.4,FINESTEERING,2269,271483.336,00000000,0146,769;2269,271483.336000000,23.26333464636,113.52476522134,27.1476,-1.6699,-3.1427,0.0137,-0.370721211,0.228334566,240.423635528,INS_SOLUTION_GOOD*5b6d143c
#INSPVAA,ICOM1,0,81.4,FINESTEERING,2269,271483.344,00000000,014e,769;2269,271483.344000000,23.26333452311,113.52476497762,27.1477,-1.6716,-3.1395,0.0169,-0.372880012,0.233427496,240.422534232,INS_SOLUTION_GOOD*2aabb68c
#INSPVAA,ICOM1,0,81.4,FINESTEERING,2269,271483.352,00000000,0156,769;2269,271483.352000000,23.26333439999,113.52476473414,27.1479,-1.6708,-3.1361,0.0183,-0.366666758,0.229152474,240.423445307,INS_SOLUTION_GOOD*76aeb380
#INSPVAA,ICOM1,0,81.4,FINESTEERING,2269,271483.360,00000000,015e,769;2269,271483.360000000,23.26333427710,113.52476449062,27.1481,-1.6677,-3.1361,0.0201,-0.366831063,0.228190265,240.423521128,INS_SOLUTION_GOOD*98ffdd58
#INSPVAA,ICOM1,0,81.4,FINESTEERING,2269,271483.368,00000000,0166,769;2269,271483.368000000,23.26333415422,113.52476424736,27.1483,-1.6669,-3.1338,0.0199,-0.362406636,0.228184131,240.422598353,INS_SOLUTION_GOOD*ecbd1900
#INSPVAA,ICOM1,0,81.4,FINESTEERING,2269,271483.376,00000000,016e,769;2269,271483.376000000,23.26333403152,113.52476400427,27.1485,-1.6647,-3.1313,0.0196,-0.362802320,0.222761437,240.422055618,INS_SOLUTION_GOOD*a04461e8
#INSPVAA,ICOM1,0,81.4,FINESTEERING,2269,271483.384,00000000,0176,769;2269,271483.384000000,23.26333390873,113.52476376129,27.1487,-1.6655,-3.1297,0.0205,-0.366271134,0.227603061,240.421615914,INS_SOLUTION_GOOD*ff14d0b7
#INSPVAA,ICOM1,0,81.4,FINESTEERING,2269,271483.392,00000000,017e,769;2269,271483.392000000,23.26333378593,113.52476351881,27.1489,-1.6664,-3.1237,0.0197,-0.357853595,0.221896826,240.421246310,INS_SOLUTION_GOOD*17576961
#INSPVAA,ICOM1,0,81.4,FINESTEERING,2269,271483.400,00000000,0186,769;2269,271483.400000000,23.26333366330,113.52476327628,27.1491,-1.6645,-3.1229,0.0197,-0.360581913,0.222903462,240.422839495,INS_SOLUTION_GOOD*7790a52d
#INSPVAA,ICOM1,0,81.4,FINESTEERING,2269,271483.408,00000000,018e,769;2269,271483.408000000,23.26333354080,113.52476303401,27.1493,-1.6623,-3.1203,0.0202,-0.359534305,0.221183220,240.423500682,INS_SOLUTION_GOOD*45a1bb52
#INSPVAA,ICOM1,0,81.4,FINESTEERING,2269,271483.416,00000000,0196,769;2269,271483.416000000,23.26333341834,113.52476279189,27.1495,-1.6614,-3.1184,0.0205,-0.357899257,0.219184212,240.422738250,INS_SOLUTION_GOOD*344a0750
#INSPVAA,ICOM1,0,81.4,FINESTEERING,2269,271483.424,00000000,019e,769;2269,271483.424000000,23.26333329600,113.52476254995,27.1497,-1.6600,-3.1162,0.0194,-0.359283673,0.216655947,240.422731349,INS_SOLUTION_GOOD*aa4a51d4
#INSPVAA,ICOM1,0,81.4,FINESTEERING,2269,271483.432,00000000,01a6,769;2269,271483.432000000,23.26333317355,113.52476230838,27.1499,-1.6612,-3.1116,0.0178,-0.356549756,0.214500014,240.422685462,INS_SOLUTION_GOOD*0fe8174f
#INSPVAA,ICOM1,0,79.4,FINESTEERING,2269,271483.440,00000000,01ae,769;2269,271483.440000000,23.26333305113,113.52476206704,27.1500,-1.6617,-3.1079,0.0170,-0.350637705,0.212671944,240.423965312,INS_SOLUTION_GOOD*ef57c46c
#INSPVAA,ICOM1,0,79.4,FINESTEERING,2269,271483.448,00000000,01b7,769;2269,271483.448000000,23.26333292893,113.52476182584,27.1502,-1.6590,-3.1059,0.0206,-0.354349835,0.214087736,240.424973377,INS_SOLUTION_GOOD*d9507f93
#INSPVAA,ICOM1,0,79.4,FINESTEERING,2269,271483.456,00000000,01bf,769;2269,271483.456000000,23.26333280679,113.52476158483,27.1504,-1.6573,-3.1038,0.0181,-0.350067871,0.210630987,240.425913356,INS_SOLUTION_GOOD*ca1f562e
#INSPVAA,ICOM1,0,79.4,FINESTEERING,2269,271483.464,00000000,01c7,769;2269,271483.464000000,23.26333268463,113.52476134396,27.1506,-1.6575,-3.1022,0.0158,-0.346695305,0.205477514,240.425780910,INS_SOLUTION_GOOD*8f0dbdcf
#INSPVAA,ICOM1,0,79.4,FINESTEERING,2269,271483.472,00000000,01cf,769;2269,271483.472000000,23.26333256250,113.52476110326,27.1508,-1.6576,-3.1001,0.0177,-0.348942842,0.205863877,240.426361997,INS_SOLUTION_GOOD*b2e6f707
#INSPVAA,ICOM1,0,79.4,FINESTEERING,2269,271483.480,00000000,01d7,769;2269,271483.480000000,23.26333244050,113.52476086277,27.1509,-1.6559,-3.0975,0.0129,-0.345017492,0.201537825,240.427839819,INS_SOLUTION_GOOD*da44049d
#INSPVAA,ICOM1,0,79.4,FINESTEERING,2269,271483.488,00000000,01df,769;2269,271483.488000000,23.26333231853,113.52476062252,27.1510,-1.6553,-3.0942,0.0112,-0.346231054,0.203791546,240.428591576,INS_SOLUTION_GOOD*fae12361
#INSPVAA,ICOM1,0,79.4,FINESTEERING,2269,271483.496,00000000,01e7,769;2269,271483.496000000,23.26333219669,113.52476038245,27.1511,-1.6536,-3.0917,0.0094,-0.342364367,0.199360983,240.429359073,INS_SOLUTION_GOOD*e50c04f9
#INSPVAA,ICOM1,0,79.4,FINESTEERING,2269,271483.504,00000000,01ef,769;2269,271483.504000000,23.26333207499,113.52476014242,27.1513,-1.6517,-3.0910,0.0110,-0.339288179,0.205002889,240.430689886,INS_SOLUTION_GOOD*7ee3733a
#INSPVAA,ICOM1,0,79.4,FINESTEERING,2269,271483.512,00000000,01f7,769;2269,271483.512000000,23.26333195331,113.52475990271,27.1514,-1.6511,-3.0875,0.0083,-0.332165132,0.202597121,240.431492026,INS_SOLUTION_GOOD*0ec59b50
#INSPVAA,ICOM1,0,79.4,FINESTEERING,2269,271483.520,00000000,01ff,769;2269,271483.520000000,23.26333183183,113.52475966300,27.1515,-1.6486,-3.0868,0.0069,-0.329841949,0.202987783,240.432575391,INS_SOLUTION_GOOD*5b07fa09
#INSPVAA,ICOM1,0,79.4,FINESTEERING,2269,271483.528,00000000,0207,769;2269,271483.528000000,23.26333171067,113.52475942350,27.1516,-1.6441,-3.0847,0.0064,-0.329864259,0.201841963,240.432801595,INS_SOLUTION_GOOD*a48d5eb7
#INSPVAA,ICOM1,0,79.4,FINESTEERING,2269,271483.536,00000000,020f,769;2269,271483.536000000,23.26333158944,113.52475918413,27.1517,-1.6442,-3.0829,0.0057,-0.327695949,0.201947696,240.431618100,INS_SOLUTION_GOOD*b2108c26
#INSPVAA,ICOM1,0,79.4,FINESTEERING,2269,271483.544,00000000,0217,769;2269,271483.544000000,23.26333146841,113.52475894502,27.1517,-1.6423,-3.0796,0.0065,-0.324273635,0.206299764,240.431659568,INS_SOLUTION_GOOD*e31399b8
#INSPVAA,ICOM1,0,79.4,FINESTEERING,2269,271483.552,00000000,021f,769;2269,271483.552000000,23.26333134761,113.52475870611,27.1518,-1.6391,-3.0768,0.0044,-0.317729780,0.208406404,240.433181337,INS_SOLUTION_GOOD*319576a5
#INSPVAA,ICOM1,0,79.4,FINESTEERING,2269,271483.560,00000000,0227,769;2269,271483.560000000,23.26333122691,113.52475846734,27.1519,-1.6374,-3.0746,0.0061,-0.318711886,0.210978780,240.433481054,INS_SOLUTION_GOOD*61f7b58e
#INSPVAA,ICOM1,0,79.4,FINESTEERING,2269,271483.568,00000000,022f,769;2269,271483.568000000,23.26333110638,113.52475822849,27.1520,-1.6353,-3.0755,0.0076,-0.318012511,0.211946905,240.433405378,INS_SOLUTION_GOOD*603e90e4
#INSPVAA,ICOM1,0,79.4,FINESTEERING,2269,271483.576,00000000,0237,769;2269,271483.576000000,23.26333098613,113.52475798987,27.1521,-1.6316,-3.0737,0.0095,-0.316008225,0.213405729,240.432390123,INS_SOLUTION_GOOD*92b69973
#INSPVAA,ICOM1,0,79.4,FINESTEERING,2269,271483.584,00000000,023f,769;2269,271483.584000000,23.26333086592,113.52475775146,27.1522,-1.6304,-3.0707,0.0068,-0.316341943,0.213890861,240.431882633,INS_SOLUTION_GOOD*a7ff4a4a
#INSPVAA,ICOM1,0,79.4,FINESTEERING,2269,271483.592,00000000,0247,769;2269,271483.592000000,23.26333074584,113.52475751311,27.1523,-1.6291,-3.0695,0.0092,-0.318093702,0.216392092,240.431137915,INS_SOLUTION_GOOD*6075dbaa
#INSPVAA,ICOM1,0,79.4,FINESTEERING,2269,271483.600,00000000,024f,769;2269,271483.600000000,23.26333062579,113.52475727498,27.1524,-1.6289,-3.0668,0.0115,-0.313788398,0.216864831,240.430576667,INS_SOLUTION_GOOD*0221035f
#INSPVAA,ICOM1,0,79.4,FINESTEERING,2269,271483.608,00000000,0256,769;2269,271483.608000000,23.26333050592,113.52475703698,27.1525,-1.6270,-3.0648,0.0089,-0.314119622,0.219115124,240.430037588,INS_SOLUTION_GOOD*74e19014
#INSPVAA,ICOM1,0,79.4,FINESTEERING,2269,271483.616,00000000,025e,769;2269,271483.616000000,23.26333038619,113.52475679914,27.1526,-1.6248,-3.0627,0.0091,-0.314480084,0.221165103,240.429417214,INS_SOLUTION_GOOD*a4c1109a
#INSPVAA,ICOM1,0,79.4,FINESTEERING,2269,271483.624,00000000,0267,769;2269,271483.624000000,23.26333026653,113.52475656136,27.1527,-1.6236,-3.0620,0.0086,-0.315622791,0.220953126,240.428525152,INS_SOLUTION_GOOD*671b2677
#INSPVAA,ICOM1,0,79.4,FINESTEERING,2269,271483.632,00000000,026f,769;2269,271483.632000000,23.26333014680,113.52475632386,27.1529,-1.6248,-3.0587,0.0113,-0.315921820,0.225442100,240.426820726,INS_SOLUTION_GOOD*1286911a
#INSPVAA,ICOM1,0,79.4,FINESTEERING,2269,271483.640,00000000,0277,769;2269,271483.640000000,23.26333002704,113.52475608676,27.1530,-1.6258,-3.0532,0.0136,-0.312549473,0.226159339,240.426242652,INS_SOLUTION_GOOD*2711ffc2
#INSPVAA,ICOM1,0,79.4,FINESTEERING,2269,271483.648,00000000,027f,769;2269,271483.648000000,23.26332990749,113.52475584972,27.1531,-1.6234,-3.0514,0.0092,-0.316447464,0.225873312,240.427164803,INS_SOLUTION_GOOD*ef398fb7
#INSPVAA,ICOM1,0,79.4,FINESTEERING,2269,271483.656,00000000,0287,769;2269,271483.656000000,23.26332978797,113.52475561294,27.1532,-1.6224,-3.0487,0.0097,-0.316636089,0.223058708,240.426258142,INS_SOLUTION_GOOD*3c2b72b2
#INSPVAA,ICOM1,0,79.4,FINESTEERING,2269,271483.664,00000000,028e,769;2269,271483.664000000,23.26332966847,113.52475537628,27.1533,-1.6220,-3.0469,0.0096,-0.315635161,0.222418208,240.424615856,INS_SOLUTION_GOOD*f7fcddd1
#INSPVAA,ICOM1,0,79.4,FINESTEERING,2269,271483.672,00000000,0296,769;2269,271483.672000000,23.26332954886,113.52475513984,27.1535,-1.6237,-3.0445,0.0117,-0.315494485,0.229805296,240.423688342,INS_SOLUTION_GOOD*9f7f646a
#INSPVAA,ICOM1,0,79.4,FINESTEERING,2269,271483.680,00000000,029e,769;2269,271483.680000000,23.26332942927,113.52475490378,27.1535,-1.6241,-3.0397,0.0044,-0.314380795,0.226949270,240.423740539,INS_SOLUTION_GOOD*f3bfdd1d
#INSPVAA,ICOM1,0,79.4,FINESTEERING,2269,271483.688,00000000,02a6,769;2269,271483.688000000,23.26332930977,113.52475466786,27.1536,-1.6230,-3.0372,0.0073,-0.316876673,0.230800170,240.423965759,INS_SOLUTION_GOOD*01da7bfc
#INSPVAA,ICOM1,0,79.4,FINESTEERING,2269,271483.696,00000000,02ae,769;2269,271483.696000000,23.26332919029,113.52475443220,27.1537,-1.6224,-3.0340,0.0063,-0.315391835,0.228505403,240.423494662,INS_SOLUTION_GOOD*02ecc5a2
#INSPVAA,ICOM1,0,79.4,FINESTEERING,2269,271483.704,00000000,02b7,769;2269,271483.704000000,23.26332907079,113.52475419667,27.1538,-1.6224,-3.0321,0.0088,-0.313111407,0.231095885,240.423915315,INS_SOLUTION_GOOD*f168c6f4
#INSPVAA,ICOM1,0,79.4,FINESTEERING,2269,271483.712,00000000,02bf,769;2269,271483.712000000,23.26332895137,113.52475396146,27.1539,-1.6217,-3.0285,0.0049,-0.314074321,0.231106894,240.424303260,INS_SOLUTION_GOOD*1163e859
#INSPVAA,ICOM1,0,79.4,FINESTEERING,2269,271483.720,00000000,02c7,769;2269,271483.720000000,23.26332883183,113.52475372638,27.1540,-1.6231,-3.0264,0.0049,-0.311685528,0.234190734,240.425341311,INS_SOLUTION_GOOD*07e2cd9b
#INSPVAA,ICOM1,0,79.4,FINESTEERING,2269,271483.728,00000000,02cf,769;2269,271483.728000000,23.26332871251,113.52475349142,27.1541,-1.6207,-3.0250,0.0051,-0.312235947,0.233114658,240.425486932,INS_SOLUTION_GOOD*cf6c9b4b
#INSPVAA,ICOM1,0,79.4,FINESTEERING,2269,271483.736,00000000,02d7,769;2269,271483.736000000,23.26332859316,113.52475325665,27.1542,-1.6205,-3.0229,0.0101,-0.311752427,0.236647620,240.425440600,INS_SOLUTION_GOOD*00a02829
#INSPVAA,ICOM1,0,79.4,FINESTEERING,2269,271483.744,00000000,02df,769;2269,271483.744000000,23.26332847384,113.52475302217,27.1543,-1.6201,-3.0193,0.0069,-0.310311227,0.236732463,240.426078976,INS_SOLUTION_GOOD*589d53fc
#INSPVAA,ICOM1,0,79.4,FINESTEERING,2269,271483.752,00000000,02e7,769;2269,271483.752000000,23.26332835459,113.52475278791,27.1544,-1.6194,-3.0159,0.0091,-0.312127512,0.233049806,240.427122215,INS_SOLUTION_GOOD*1170869d
#INSPVAA,ICOM1,0,79.4,FINESTEERING,2269,271483.760,00000000,02ef,769;2269,271483.760000000,23.26332823537,113.52475255390,27.1545,-1.6189,-3.0126,0.0073,-0.313834389,0.234318119,240.427903063,INS_SOLUTION_GOOD*708abbba
#INSPVAA,ICOM1,0,79.4,FINESTEERING,2269,271483.768,00000000,02f7,769;2269,271483.768000000,23.26332811626,113.52475232002,27.1546,-1.6175,-3.0107,0.0098,-0.309842356,0.238325100,240.429684583,INS_SOLUTION_GOOD*1de2d1c9
#INSPVAA,ICOM1,0,79.4,FINESTEERING,2269,271483.776,00000000,02ff,769;2269,271483.776000000,23.26332799724,113.52475208638,27.1547,-1.6161,-3.0080,0.0071,-0.316235795,0.236510054,240.430443360,INS_SOLUTION_GOOD*333b1923
#INSPVAA,ICOM1,0,79.4,FINESTEERING,2269,271483.784,00000000,0307,769;2269,271483.784000000,23.26332787824,113.52475185282,27.1548,-1.6158,-3.0067,0.0078,-0.320304946,0.238398011,240.430323734,INS_SOLUTION_GOOD*ee27bdaa
#INSPVAA,ICOM1,0,79.4,FINESTEERING,2269,271483.792,00000000,030f,769;2269,271483.792000000,23.26332775928,113.52475161968,27.1549,-1.6154,-3.0020,0.0090,-0.322478113,0.236499895,240.430990054,INS_SOLUTION_GOOD*2e55c3f2
#INSPVAA,ICOM1,0,79.4,FINESTEERING,2269,271483.800,00000000,0317,769;2269,271483.800000000,23.26332764025,113.52475138665,27.1549,-1.6164,-2.9996,0.0066,-0.323219692,0.238906891,240.433021081,INS_SOLUTION_GOOD*b620bbc0
#INSPVAA,ICOM1,0,79.4,FINESTEERING,2269,271483.808,00000000,031f,769;2269,271483.808000000,23.26332752139,113.52475115378,27.1550,-1.6147,-2.9978,0.0046,-0.324405672,0.237650506,240.435226595,INS_SOLUTION_GOOD*b591276f
#INSPVAA,ICOM1,0,79.4,FINESTEERING,2269,271483.816,00000000,0327,769;2269,271483.816000000,23.26332740265,113.52475092096,27.1551,-1.6127,-2.9973,0.0054,-0.331029229,0.242291678,240.435781921,INS_SOLUTION_GOOD*b20066e6
#INSPVAA,ICOM1,0,79.4,FINESTEERING,2269,271483.824,00000000,032f,769;2269,271483.824000000,23.26332728384,113.52475068846,27.1552,-1.6132,-2.9937,0.0033,-0.330174272,0.246022355,240.436129271,INS_SOLUTION_GOOD*5b1060aa
#INSPVAA,ICOM1,0,79.4,FINESTEERING,2269,271483.832,00000000,0337,769;2269,271483.832000000,23.26332716514,113.52475045603,27.1552,-1.6122,-2.9923,0.0030,-0.334015493,0.246005109,240.437624724,INS_SOLUTION_GOOD*9ef2dbc3
#INSPVAA,ICOM1,0,79.4,FINESTEERING,2269,271483.840,00000000,033f,769;2269,271483.840000000,23.26332704635,113.52475022382,27.1553,-1.6133,-2.9897,0.0038,-0.341972435,0.249584613,240.438436087,INS_SOLUTION_GOOD*7d445811
#INSPVAA,ICOM1,0,79.4,FINESTEERING,2269,271483.848,00000000,0347,769;2269,271483.848000000,23.26332692770,113.52474999188,27.1553,-1.6119,-2.9861,0.0002,-0.337954990,0.245067087,240.440054776,INS_SOLUTION_GOOD*26f1ac27
#INSPVAA,ICOM1,0,79.4,FINESTEERING,2269,271483.856,00000000,034f,769;2269,271483.856000000,23.26332680929,113.52474975997,27.1553,-1.6086,-2.9850,-0.0027,-0.340293028,0.248956836,240.441551965,INS_SOLUTION_GOOD*6d6ee71a
#INSPVAA,ICOM1,0,79.4,FINESTEERING,2269,271483.864,00000000,0357,769;2269,271483.864000000,23.26332669087,113.52474952830,27.1554,-1.6076,-2.9827,-0.0032,-0.339781882,0.253527972,240.443180647,INS_SOLUTION_GOOD*c76cfad4
#INSPVAA,ICOM1,0,79.4,FINESTEERING,2269,271483.872,00000000,035f,769;2269,271483.872000000,23.26332657265,113.52474929662,27.1553,-1.6055,-2.9825,-0.0066,-0.339407569,0.261155103,240.444032365,INS_SOLUTION_GOOD*39052598
#INSPVAA,ICOM1,0,79.4,FINESTEERING,2269,271483.880,00000000,0367,769;2269,271483.880000000,23.26332645447,113.52474906522,27.1553,-1.6046,-2.9794,-0.0052,-0.340670326,0.265887980,240.443850885,INS_SOLUTION_GOOD*28c58951
#INSPVAA,ICOM1,0,79.4,FINESTEERING,2269,271483.888,00000000,036f,769;2269,271483.888000000,23.26332633647,113.52474883396,27.1553,-1.6025,-2.9772,-0.0056,-0.344688141,0.266738532,240.444424405,INS_SOLUTION_GOOD*91bb1ad8
#INSPVAA,ICOM1,0,79.4,FINESTEERING,2269,271483.896,00000000,0376,769;2269,271483.896000000,23.26332621862,113.52474860274,27.1553,-1.6002,-2.9765,-0.0045,-0.341584733,0.270718048,240.445621844,INS_SOLUTION_GOOD*3cc62a12
#INSPVAA,ICOM1,0,79.4,FINESTEERING,2269,271483.904,00000000,037f,769;2269,271483.904000000,23.26332610085,113.52474837179,27.1553,-1.5989,-2.9735,-0.0054,-0.338975676,0.270683518,240.446452163,INS_SOLUTION_GOOD*a89b86bd
#INSPVAA,ICOM1,0,79.4,FINESTEERING,2269,271483.912,00000000,0386,769;2269,271483.912000000,23.26332598336,113.52474814085,27.1553,-1.5955,-2.9728,-0.0071,-0.339958185,0.272665342,240.447105011,INS_SOLUTION_GOOD*04df0e2b
#INSPVAA,ICOM1,0,79.4,FINESTEERING,2269,271483.920,00000000,038e,769;2269,271483.920000000,23.26332586603,113.52474791004,27.1553,-1.5927,-2.9715,-0.0064,-0.344512607,0.277888149,240.447017247,INS_SOLUTION_GOOD*44e20e76
#INSPVAA,ICOM1,0,79.4,FINESTEERING,2269,271483.928,00000000,0396,769;2269,271483.928000000,23.26332574874,113.52474767940,27.1553,-1.5921,-2.9693,-0.0059,-0.344811882,0.281962181,240.446492750,INS_SOLUTION_GOOD*3fbebb17
#INSPVAA,ICOM1,0,79.4,FINESTEERING,2269,271483.936,00000000,039f,769;2269,271483.936000000,23.26332563166,113.52474744884,27.1553,-1.5899,-2.9681,-0.0059,-0.344033617,0.285837501,240.446872747,INS_SOLUTION_GOOD*17a58173
#INSPVAA,ICOM1,0,79.4,FINESTEERING,2269,271483.944,00000000,03a6,769;2269,271483.944000000,23.26332551467,113.52474721846,27.1553,-1.5884,-2.9659,-0.0041,-0.346214541,0.285892619,240.447132913,INS_SOLUTION_GOOD*35fc993a
#INSPVAA,ICOM1,0,79.4,FINESTEERING,2269,271483.952,00000000,03ae,769;2269,271483.952000000,23.26332539793,113.52474698817,27.1553,-1.5852,-2.9646,-0.0024,-0.346743232,0.286302671,240.447776793,INS_SOLUTION_GOOD*94d9da09
#INSPVAA,ICOM1,0,79.4,FINESTEERING,2269,271483.960,00000000,03b6,769;2269,271483.960000000,23.26332528138,113.52474675810,27.1553,-1.5823,-2.9618,-0.0030,-0.346597282,0.287926396,240.447106793,INS_SOLUTION_GOOD*7d9d519f
#INSPVAA,ICOM1,0,79.4,FINESTEERING,2269,271483.968,00000000,03be,769;2269,271483.968000000,23.26332516496,113.52474652810,27.1553,-1.5802,-2.9605,-0.0039,-0.349361780,0.289491615,240.446832142,INS_SOLUTION_GOOD*122d721b
#INSPVAA,ICOM1,0,79.4,FINESTEERING,2269,271483.976,00000000,03c6,769;2269,271483.976000000,23.26332504865,113.52474629816,27.1553,-1.5790,-2.9599,-0.0019,-0.347627813,0.290790826,240.445747903,INS_SOLUTION_GOOD*bf38d2b2
#INSPVAA,ICOM1,0,79.4,FINESTEERING,2269,271483.984,00000000,03cf,769;2269,271483.984000000,23.26332493242,113.52474606842,27.1553,-1.5782,-2.9577,0.0000,-0.343579367,0.295579245,240.445894485,INS_SOLUTION_GOOD*4fc626ad
#INSPVAA,ICOM1,0,79.4,FINESTEERING,2269,271483.992,00000000,03d6,769;2269,271483.992000000,23.26332481628,113.52474583872,27.1553,-1.5772,-2.9569,-0.0002,-0.342113138,0.294390823,240.445657369,INS_SOLUTION_GOOD*83e5792a
#INSPVAA,ICOM1,0,79.4,FINESTEERING,2269,271484.000,00000000,03de,769;2269,271484.000000000,23.26332470041,113.52474560936,27.1554,-1.5738,-2.9527,0.0018,-0.344027533,0.293741606,240.445837002,INS_SOLUTION_GOOD*b75236c6
#INSPVAA,ICOM1,0,79.4,FINESTEERING,2269,271484.008,00000000,03e6,769;2269,271484.008000000,23.26332458687,113.52474537838,27.1554,-1.5707,-2.9529,-0.0010,-0.340071175,0.293738198,240.445388130,INS_SOLUTION_GOOD*9de7137b
#INSPVAA,ICOM1,0,79.4,FINESTEERING,2269,271484.016,00000000,0006,769;2269,271484.016000000,23.26332447334,113.52474514764,27.1553,-1.5703,-2.9506,-0.0035,-0.338642006,0.292273357,240.444556918,INS_SOLUTION_GOOD*f4ceb84c
#INSPVAA,ICOM1,0,79.4,FINESTEERING,2269,271484.024,00000000,000f,769;2269,271484.024000000,23.26332435993,113.52474491716,27.1554,-1.5691,-2.9472,0.0044,-0.328658708,0.300778950,240.444170434,INS_SOLUTION_GOOD*cd6c2203
#INSPVAA,ICOM1,0,79.4,FINESTEERING,2269,271484.032,00000000,0017,769;2269,271484.032000000,23.26332424667,113.52474468684,27.1554,-1.5672,-2.9446,-0.0008,-0.323820758,0.304540829,240.444954829,INS_SOLUTION_GOOD*16f80adc
#INSPVAA,ICOM1,0,79.4,FINESTEERING,2269,271484.040,00000000,001f,769;2269,271484.040000000,23.26332413347,113.52474445667,27.1554,-1.5663,-2.9426,0.0003,-0.328179172,0.303310506,240.443793526,INS_SOLUTION_GOOD*0e2ccfe7
#INSPVAA,ICOM1,0,79.4,FINESTEERING,2269,271484.048,00000000,0027,769;2269,271484.048000000,23.26332402036,113.52474422659,27.1554,-1.5651,-2.9417,0.0080,-0.321311449,0.302534395,240.443497088,INS_SOLUTION_GOOD*e77aeb00
#INSPVAA,ICOM1,0,79.4,FINESTEERING,2269,271484.056,00000000,002f,769;2269,271484.056000000,23.26332390735,113.52474399675,27.1555,-1.5638,-2.9389,0.0077,-0.311318692,0.306522730,240.444375806,INS_SOLUTION_GOOD*74eb2d85
#BESTPOSA,ICOM1,0,79.4,FINESTEERING,2269,271484.000,00000000,0001,769;SOL_COMPUTED,NARROW_INT,23.26332298335,113.52474318890,34.6444,-6.3555,WGS84,0.0111,0.0111,0.0233,"3973",1.000,0.051,55,25,25,25,00,00,30,37*61d6e1f0
#INSPVAA,ICOM1,0,79.4,FINESTEERING,2269,271484.064,00000000,0037,769;2269,271484.064000000,23.26332379430,113.52474376705,27.1555,-1.5643,-2.9369,0.0028,-0.306366543,0.303321076,240.444596704,INS_SOLUTION_GOOD*d3b8b70d
#INSPVAA,ICOM1,0,79.4,FINESTEERING,2269,271484.072,00000000,003e,769;2269,271484.072000000,23.26332368145,113.52474353762,27.1556,-1.5621,-2.9335,0.0086,-0.303282666,0.304420792,240.445142946,INS_SOLUTION_GOOD*edfbff5f
#INSPVAA,ICOM1,0,79.4,FINESTEERING,2269,271484.080,00000000,0046,769;2269,271484.080000000,23.26332356879,113.52474330810,27.1556,-1.5590,-2.9341,0.0087,-0.301278295,0.310396806,240.445913368,INS_SOLUTION_GOOD*6233d31d
#INSPVAA,ICOM1,0,79.4,FINESTEERING,2269,271484.088,00000000,004e,769;2269,271484.088000000,23.26332345612,113.52474307894,27.1557,-1.5586,-2.9306,0.0081,-0.295734041,0.312437115,240.444546000,INS_SOLUTION_GOOD*57c50c85
#INSPVAA,ICOM1,0,79.4,FINESTEERING,2269,271484.096,00000000,0056,769;2269,271484.096000000,23.26332334348,113.52474284996,27.1558,-1.5587,-2.9277,0.0110,-0.287946083,0.310179513,240.445194150,INS_SOLUTION_GOOD*d2ac33fb
#INSPVAA,ICOM1,0,79.4,FINESTEERING,2269,271484.104,00000000,005f,769;2269,271484.104000000,23.26332323091,113.52474262099,27.1559,-1.5580,-2.9272,0.0150,-0.284847335,0.317314891,240.446855952,INS_SOLUTION_GOOD*0e8d013f
#INSPVAA,ICOM1,0,79.4,FINESTEERING,2269,271484.112,00000000,0066,769;2269,271484.112000000,23.26332311853,113.52474239226,27.1560,-1.5555,-2.9248,0.0158,-0.278308397,0.307523715,240.447932514,INS_SOLUTION_GOOD*5722bafc
#INSPVAA,ICOM1,0,79.4,FINESTEERING,2269,271484.120,00000000,006f,769;2269,271484.120000000,23.26332300623,113.52474216375,27.1561,-1.5538,-2.9217,0.0163,-0.272342475,0.310441515,240.447748133,INS_SOLUTION_GOOD*f3c0bb91
#INSPVAA,ICOM1,0,79.4,FINESTEERING,2269,271484.128,00000000,0077,769;2269,271484.128000000,23.26332289423,113.52474193534,27.1563,-1.5499,-2.9202,0.0156,-0.272118316,0.312499376,240.447557510,INS_SOLUTION_GOOD*5d118bf1
#INSPVAA,ICOM1,0,79.4,FINESTEERING,2269,271484.136,00000000,007f,769;2269,271484.136000000,23.26332278214,113.52474170707,27.1564,-1.5502,-2.9186,0.0185,-0.269752840,0.311088063,240.447372676,INS_SOLUTION_GOOD*ebccb31c
#INSPVAA,ICOM1,0,79.4,FINESTEERING,2269,271484.144,00000000,0087,769;2269,271484.144000000,23.26332267007,113.52474147907,27.1566,-1.5506,-2.9154,0.0204,-0.264814296,0.312003235,240.448605391,INS_SOLUTION_GOOD*8a7cd174
#INSPVAA,ICOM1,0,79.4,FINESTEERING,2269,271484.152,00000000,008e,769;2269,271484.152000000,23.26332255819,113.52474125125,27.1567,-1.5487,-2.9127,0.0203,-0.261296100,0.311466463,240.449488138,INS_SOLUTION_GOOD*182d0d90
#INSPVAA,ICOM1,0,79.4,FINESTEERING,2269,271484.160,00000000,0096,769;2269,271484.160000000,23.26332244635,113.52474102364,27.1569,-1.5477,-2.9100,0.0210,-0.258491750,0.312446446,240.449902290,INS_SOLUTION_GOOD*d21d9eee
#INSPVAA,ICOM1,0,79.4,FINESTEERING,2269,271484.168,00000000,009f,769;2269,271484.168000000,23.26332233462,113.52474079604,27.1571,-1.5461,-2.9095,0.0207,-0.256843298,0.308595962,240.450044000,INS_SOLUTION_GOOD*5978f443
#INSPVAA,ICOM1,0,79.4,FINESTEERING,2269,271484.176,00000000,00a6,769;2269,271484.176000000,23.26332222299,113.52474056852,27.1572,-1.5448,-2.9091,0.0221,-0.261783995,0.307326777,240.449841540,INS_SOLUTION_GOOD*8a28096e
#INSPVAA,ICOM1,0,79.4,FINESTEERING,2269,271484.184,00000000,00af,769;2269,271484.184000000,23.26332211130,113.52474034137,27.1574,-1.5454,-2.9050,0.0224,-0.258343141,0.305830283,240.449464192,INS_SOLUTION_GOOD*909e71e1
#INSPVAA,ICOM1,0,79.4,FINESTEERING,2269,271484.192,00000000,00b6,769;2269,271484.192000000,23.26332199714,113.52474011743,27.1575,-1.5449,-2.9026,0.0192,-0.254037552,0.305025620,240.450282718,INS_SOLUTION_GOOD*df00e109
#INSPVAA,ICOM1,0,79.4,FINESTEERING,2269,271484.200,00000000,00be,769;2269,271484.200000000,23.26332188427,113.52473989198,27.1577,-1.5457,-2.9009,0.0184,-0.253398257,0.306032760,240.451256602,INS_SOLUTION_GOOD*a25f5a2c
#INSPVAA,ICOM1,0,79.4,FINESTEERING,2269,271484.208,00000000,00c6,769;2269,271484.208000000,23.26332177140,113.52473966665,27.1578,-1.5461,-2.8994,0.0194,-0.252961961,0.304449229,240.451434796,INS_SOLUTION_GOOD*0bbadf7f
#INSPVAA,ICOM1,0,79.4,FINESTEERING,2269,271484.216,00000000,00ce,769;2269,271484.216000000,23.26332165864,113.52473944160,27.1580,-1.5448,-2.8961,0.0166,-0.253022216,0.303457883,240.451322995,INS_SOLUTION_GOOD*f89ce811
#INSPVAA,ICOM1,0,79.4,FINESTEERING,2269,271484.224,00000000,00d6,769;2269,271484.224000000,23.26332154590,113.52473921676,27.1581,-1.5440,-2.8930,0.0144,-0.253994918,0.303075619,240.451638202,INS_SOLUTION_GOOD*286bdae6
